集团编号,HP编号,热点名称,热点类型,地址,省份,地市,县市,所属分局（分公司）,经度,纬度,代维公司,IP地址段,接入方式,热点等级,集成商,业主联系人,联系方式,WLAN干放数量,是否有室分,接入电路编号,POP,业务VLAN,PVLAN,管理VLAN,接入域,端口类型,覆盖区域,AP数量,创建时间,备注,导入编号,所属AC名称,场点名称,热点状态,地标,集团经度,集团纬度,
CT_zj_580d0300265,800303010,岱山岱西双合客运站, 长途汽车站,岱山双合客运站,浙江,舟山市,岱山县,岱山分公司,122.062407,30.293826,金州,183.152.192.2-183.152.207.254,光纤,C,工程局FZ,魏幸淑,15305807947,0,否,,,2068,1003,3024,ZS-DH-NZ-1.domain,以太网,售票大厅以及候车室,2,2010-01-07,,CT_zj_5800330001,贝尔AC38（虚）,,正常热点,岱山岱西双合客运站,,,
CT_zj_580d1300266,800313011,岱山长涂医院, 医院,岱山长涂医院,浙江,舟山市,岱山县,岱山分公司,122.30253,30.25273,金州,183.152.192.2-183.152.207.254,光纤,C,工程局FZ,魏幸淑,15305807947,0,否,,,1006,1023,3024,ZS-DH-NZ-1.domain,以太网,寝室楼及门诊大楼,2,2010-01-07,,CT_zj_5801330006,网件AC6（虚）,,正常热点,岱山长涂医院,,,
CT_zj_580d1200267,800312012,岱山东沙派出所, 政府机关等事业单位,岱山东沙派出所,浙江,舟山市,岱山县,岱山分公司,122.16131,30.30433,金州,183.152.192.2-183.152.207.254,光纤,C,工程局FZ,魏幸淑,15305807947,0,否,,,1007,1023,3027,ZS-DH-NZ-1.domain,以太网,会议室,1,2010-01-07,,CT_zj_5801230002,网件AC6（虚）,,正常热点,岱山东沙派出所,,,
CT_zj_580d1200268,800312013,岱山东沙镇政府, 政府机关等事业单位,岱山东沙镇政府,浙江,舟山市,岱山县,岱山分公司,122.16131,30.30433,金州,183.152.192.2-183.152.207.254,光纤,C,工程局FZ,魏幸淑,15305807947,0,否,,,1008,1023,3027,ZS-DH-NZ-1.domain,以太网,会议室,2,2010-01-07,,CT_zj_5801230003,网件AC6（虚）,,正常热点,岱山东沙镇政府,,,
CT_zj_580d9900269,800399014,岱山高亭蓬莱公园, 其他,岱山高亭蓬莱公园,浙江,舟山市,岱山县,岱山分公司,122.20491,30.24446,金州,183.152.192.2-183.152.207.254,光纤,C,工程局FZ,魏幸淑,15305807947,0,否,,,1009,1023,3025,ZS-DH-NZ-1.domain,以太网,蓬莱公园健身场所,1,2010-01-07,,CT_zj_5809930007,网件AC6（虚）,,正常热点,岱山高亭蓬莱公园,,,
CT_zj_580d0600008,800306015,岱山高亭蓝天宾馆, 宾馆酒店,蓝天宾馆,浙江,舟山市,岱山县,岱山分公司,122.20574,30.24486,金州,183.152.192.2-183.152.207.254,光纤,C,工程局FZ,魏幸淑,15305807947,0,是,,,2069,1003,3024,ZS-DH-NZ-1.domain,以太网,大厅,5,2009-02-09,,CT_zj_5800630014,贝尔AC38（虚）,,正常热点,岱山高亭蓝天宾馆,,,
CT_zj_580d9900270,800399017,岱山高亭沿港东路47号, 其他,岱山高亭沿港东路47号,浙江,舟山市,岱山县,岱山分公司,122.206152,30.240001,金州,183.152.192.2-183.152.207.254,光纤,C,工程局FZ,魏幸淑,15305807947,0,否,,,1010,1023,3025,ZS-DH-NZ-1.domain,以太网,沿港东路47号附近路面,1,2010-01-07,,CT_zj_5809930008,网件AC6（虚）,,正常热点,岱山高亭沿港东路47号,,,
CT_zj_580d0800005,800308019,岱山高亭得法茶楼, 休闲娱乐吧,得法茶楼,浙江,舟山市,岱山县,岱山分公司,122.20053,30.24756,金州,183.152.192.2-183.152.207.254,光纤,C,工程局FZ,魏幸淑,15305807947,0,是,,,1031,1023,3026,ZS-DH-NZ-1.domain,以太网,2F吧台,1,2009-02-09,,CT_zj_5800830002,网件AC6（虚）,,正常热点,岱山高亭得法茶楼,,,
CT_zj_580d0600006,800306020,岱山高亭渔家岙大酒店, 宾馆酒店,渔家岙大酒店,浙江,舟山市,岱山县,岱山分公司,122.21979,30.2447,金州,183.152.192.2-183.152.207.254,光纤,C,工程局FZ,魏幸淑,15305807947,0,是,,,2192,1003,3026,ZS-DH-NZ-1.domain,以太网,大堂吧,1,2009-02-09,,CT_zj_5800630015,贝尔ac44（虚）,,正常热点,岱山高亭渔家岙大酒店,,,
CT_zj_580d0600012,800306025,岱山衢山豪士登大酒店, 宾馆酒店,巨山宾馆,浙江,舟山市,岱山县,岱山分公司,122.28477,30.45078,金州,183.152.192.2-183.152.207.254,光纤,C,工程局FZ,魏幸淑,15305807947,0,是,,,2073,1003,3024,ZS-DH-NZ-1.domain,以太网,大厅,1,2010-01-08,,CT_zj_5800630012,贝尔AC38（虚）,,正常热点,岱山衢山豪士登大酒店,,,
CT_zj_580d9900271,800314026,岱山高亭蓬莱商都, 其他,岱山高亭蓬莱商都,浙江,舟山市,岱山县,岱山分公司,122.19928,30.24614,金州,183.152.192.2-183.152.207.254,光纤,B,工程局FZ,魏幸淑,15305807947,0,否,,,1011,1023,3025,ZS-DH-NZ-1.domain,以太网,步行街,1,2010-01-07,,CT_zj_5809930021,网件AC6（虚）,,正常热点,岱山高亭蓬莱商都,,,
CT_zj_580d1200013,800311027,岱山衢山镇政府, 政府机关等事业单位,巨山镇政府,浙江,舟山市,岱山县,岱山分公司,122.29152,30.45327,金州,183.152.192.2-183.152.207.254,光纤,C,工程局FZ,魏幸淑,15305807947,0,是,,,1033,1023,3024,ZS-DH-NZ-1.domain,以太网,4楼会议室,1,2009-02-09,,CT_zj_5801230011,网件AC6（虚）,,正常热点,岱山衢山镇政府,,,
CT_zj_580d9900272,800399028,岱山高亭房地大楼, 其他,岱山高亭房地大楼,浙江,舟山市,岱山县,岱山分公司,122.19753,30.24487,金州,183.152.192.2-183.152.207.254,光纤,C,工程局FZ,魏幸淑,15305807947,0,否,,,1012,1023,3025,ZS-DH-NZ-1.domain,以太网,步行街房地大楼附近街道,1,2010-01-07,,CT_zj_5809930017,网件AC6（虚）,,正常热点,岱山高亭房地大楼,,,
CT_zj_580a0600016,80013044,定海金三角大酒店, 宾馆酒店,定海区人民南路259号,浙江,舟山市,定海县,定海分公司,122.10365,30.01219,金州,183.152.192.2-183.152.207.254,光纤,C,浙贝,顾磊,15305809609,0,是,,,82,1001,3024,ZS-DH-NZ-1.domain,以太网,全覆盖,6,2009-02-09,,CT_zj_5800610014,贝尔AC38（虚）,,正常热点,定海金三角大酒店,,,
CT_zj_580d1200273,800312029,岱山长涂镇政府, 政府机关等事业单位,岱山长涂镇政府,浙江,舟山市,岱山县,岱山分公司,122.29506,30.2532,金州,183.152.192.2-183.152.207.254,光纤,C,工程局FZ,魏幸淑,15305807947,0,否,,,1013,1023,3024,ZS-DH-NZ-1.domain,以太网,镇政府办公室区域,1,2010-01-07,,CT_zj_5801230004,网件AC6（虚）,,正常热点,岱山长涂镇政府,,,
CT_zj_580d1200274,800312031,岱山长涂交警队, 政府机关等事业单位,岱山长涂交警队,浙江,舟山市,岱山县,岱山分公司,122.30704,30.25377,金州,183.152.192.2-183.152.207.254,光纤,C,工程局FZ,魏幸淑,15305807947,0,否,,,1014,1023,3024,ZS-DH-NZ-1.domain,以太网,宿舍,2,2010-01-07,,CT_zj_5801230006,网件AC6（虚）,,正常热点,岱山长涂交警队,,,
CT_zj_580d1600277,800316034,岱山长涂电信支局, 电信自有,岱山长涂电信支局,浙江,舟山市,岱山县,岱山分公司,122.30339,30.25204,金州,183.152.192.2-183.152.207.254,光纤,C,工程局FZ,营业厅,4712080,0,否,,,1017,1023,3024,ZS-DH-NZ-1.domain,以太网,1F营业大厅,1,2010-01-07,,CT_zj_5801630002,网件AC6（虚）,,正常热点,岱山长涂电信支局,,,
CT_zj_580d1600278,800316035,岱山衢山电信支局营业厅, 电信自有,岱山衢山电信支局,浙江,舟山市,岱山县,岱山分公司,122.29127,30.45208,金州,183.152.192.2-183.152.207.254,光纤,C,工程局FZ,营业厅,4791234,0,否,,,2189,1003,3000,ZS-DH-NZ-1.domain,以太网,营业厅,1,2010-01-07,,CT_zj_5801630003,贝尔ac44（虚）,,正常热点,岱山衢山电信支局营业厅,,,
CT_zj_580d0800026,80031005,岱山高亭绿岛茶座, 休闲娱乐吧,岱山县高亭镇时代广场(南楼401号),浙江,舟山市,岱山县,岱山分公司,122.202304,30.247845,金州,183.152.192.2-183.152.207.254,光纤,C,工程局FZ,魏幸淑,15305807947,0,否,,,2070,1003,3024,ZS-DH-NZ-1.domain,以太网,全覆盖,1,2008-04-17,,CT_zj_5800830003,贝尔AC38（虚）,,正常热点,岱山高亭绿岛茶座,,,
CT_zj_580b1100116,800211052,普陀沈家门东方大酒店, 商务楼,舟山沈家门滨港路50号,浙江,舟山市,普陀县,普陀分公司,122.2947,29.94548,工程局,183.152.192.2-183.152.207.254,光纤,B,浙贝,乐谋勋,15305808705,0,是,,,827,1022,3024,ZS-DH-NZ-1.domain,以太网,全覆盖,5,2009-09-17,,CT_zj_5801120022,网件AC22（虚）,,正常热点,普陀沈家门东方大酒店,,,
CT_zj_580b0600501,800206098,普陀桃花桃花苑宾馆, 宾馆酒店,普陀桃花公前桃源中路,浙江,舟山市,普陀县,普陀分公司,122.27296,29.83433,工程局,183.152.192.2-183.152.207.254,光纤,D,浙贝,乐谋勋,15305808705,0,是,,,661,1022,3024,ZS-DH-NZ-1.domain,以太网,全覆盖,7,2010-05-11,,CT_zj_5800620004,网件AC22（虚）,,正常热点,普陀桃花桃花苑宾馆,,,
CT_zj_580a1600033,800116056,定海电信调度大楼营业厅, 电信自有,定海区人民北路8号,浙江,舟山市,定海县,定海分公司,122.10359,30.02262,金州,183.152.192.2-183.152.207.254,光纤,A,杭贝,营业厅,2043884,0,是,,,2,1001,3000,ZS-DH-NZ-1.domain,以太网,全覆盖,2,2008-04-17,,CT_zj_5801610012,贝尔AC38（虚）,,正常热点,定海电信调度大楼营业厅,,,
CT_zj_580a1500035,80012009,定海宏图三胞, 大型购物广场,定海区文化广场28号,浙江,舟山市,定海县,定海分公司,122.10458,30.01729,金州,183.152.192.2-183.152.207.254,光纤,A,杭贝,顾磊,15305809609,0,是,,,34,1001,3024,ZS-DH-NZ-1.domain,以太网,2F宏图三胞/1F国美电器,1,2008-04-17,,CT_zj_5801510001,贝尔AC38（虚）,,正常热点,定海宏图三胞,,,
CT_zj_580a0300038,80012020,定海长途汽车站候车厅, 长途汽车站,定海区环城南路15号,浙江,舟山市,定海县,定海分公司,122.08686,30.01367,金州,183.152.192.2-183.152.207.254,光纤,A,工程局FZ,顾磊,15305809609,0,否,,,196,1001,3029,ZS-DH-NZ-1.domain,以太网,候车大厅,3,2008-04-17,,CT_zj_5800310004,贝尔AC38（虚）,,正常热点,定海长途汽车站候车厅,,,
CT_zj_580b0600039,80022003,普陀东港渔港城市酒店, 宾馆酒店,普陀区东港街道海洲路495号,浙江,舟山市,普陀县,普陀分公司,122.3198,29.96555,工程局,183.152.192.2-183.152.207.254,光纤,B,瑞达,乐谋勋,15305808705,0,否,,,672,1002,3049,ZS-DH-NZ-1.domain,以太网,大厅,1,2009-12-31,,CT_zj_5800620058,贝尔ac47（虚）,,正常热点,普陀东港渔港城市酒店,,,
CT_zj_580b0600041,80023014,普陀桃花桃花宾馆, 宾馆酒店,普陀区桃花镇公前村,浙江,舟山市,普陀县,普陀分公司,122.27323,29.83524,工程局,183.152.192.2-183.152.207.254,光纤,D,瑞达,乐谋勋,15305808705,0,否,,,660,1022,3024,ZS-DH-NZ-1.domain,以太网,大堂、会议室等,2,2009-12-31,,CT_zj_5800620033,网件AC22（虚）,,正常热点,普陀桃花桃花宾馆,,,
CT_zj_580b0600042,80022017,普陀普陀山大酒店, 宾馆酒店,普陀山梅岑路93号,浙江,舟山市,普陀县,普陀分公司,122.375355,29.98422,工程局,183.152.192.2-183.152.207.254,光纤,D,国人,乐谋勋,15305808705,0,是,,,544,1022,3026,ZS-DH-NZ-1.domain,以太网,地下室会议室,1,2009-12-31,,CT_zj_5800620043,网件AC22（虚）,,正常热点,普陀普陀山大酒店,,,
CT_zj_580b0600045,800206053,普陀朱家尖海天台宾馆网件, 宾馆酒店,普陀区朱家尖南沙度假村路,浙江,舟山市,普陀县,普陀分公司,122.41147,29.8821,工程局,183.152.192.2-183.152.207.254,光纤,C,国人,乐谋勋,15305808705,0,是,,,678,1022,3033,ZS-DH-NZ-1.domain,以太网,普陀朱家尖海天台宾馆大厅,1,2008-04-17,,CT_zj_5800620036,网件AC22（虚）,,正常热点,普陀朱家尖海天台宾馆网件,,,
CT_zj_580b0600047,80021018,普陀普陀山息来小庄, 宾馆酒店,普陀山香华街1号,浙江,舟山市,普陀县,普陀分公司,122.380683,29.986665,工程局,183.152.192.2-183.152.207.254,光纤,D,国人,乐谋勋,15305808705,0,是,,,828,1022,3024,ZS-DH-NZ-1.domain,以太网,大堂、会议室等,3,2010-05-14,,CT_zj_5800620041,网件AC22（虚）,,正常热点,普陀普陀山息来小庄,,,
CT_zj_580b1600048,80025016,普陀沈家门电信大楼电信营业厅, 电信自有,普陀沈家门新街195号,浙江,舟山市,普陀县,普陀分公司,122.29857,29.95034,工程局,183.152.192.2-183.152.207.254,光纤,A,国人,营业厅,3023200,0,是,,,202,1002,3024,ZS-DH-NZ-1.domain,以太网,全覆盖,3,2009-12-31,,CT_zj_5801620007,贝尔AC41（虚）,普陀电信大楼,正常热点,普陀沈家门电信大楼电信营业厅,,,
CT_zj_580b0600050,800208054,普陀东港海中洲海鲜城, 宾馆酒店,普陀区东港海洲路280号,浙江,舟山市,普陀县,普陀分公司,122.32073,29.96282,工程局,183.152.192.2-183.152.207.254,光纤,A,瑞达,乐谋勋,15305808705,0,否,,,825,1022,3027,ZS-DH-NZ-1.domain,以太网,海鲜城1F靠海边休闲区,1,2008-04-17,,CT_zj_5800820014,网件AC22（虚）,,正常热点,普陀东港海中洲海鲜城,,,
CT_zj_580c9900083,800499015,嵊泗菜园公安局, 其他,嵊泗公安局,浙江,舟山市,嵊泗县,嵊泗分公司,122.4475,30.72883,金州,183.152.192.2-183.152.207.254,光纤,C,工程局FZ,阮卫其,13395801152,0,否,,,1502,1024,3024,ZS-DH-NZ-1.domain,以太网,岛心公园全部及公安局附近街道,1,2009-11-12,,CT_zj_5801240009,网件AC22（虚）,,正常热点,嵊泗菜园公安局,,,
CT_zj_580c0800085,800408017,嵊泗菜园沙拉斯, 休闲娱乐吧,嵊泗沙拉斯,浙江,舟山市,嵊泗县,嵊泗分公司,122.455408,30.727998,金州,183.152.192.2-183.152.207.254,光纤,A,工程局FZ,阮卫其,13395801152,0,否,,,1507,1024,3024,ZS-DH-NZ-1.domain,以太网,沙拉斯全部,1,2009-11-12,,CT_zj_5800840002,网件AC22（虚）,,正常热点,嵊泗菜园沙拉斯,,,
CT_zj_580c1600087,80042006,嵊泗菜园电信枢纽大楼营业厅, 电信自有,嵊泗县菜园镇云龙路1号,浙江,舟山市,嵊泗县,嵊泗分公司,122.45246,30.7274,金州,183.152.192.2-183.152.207.254,光纤,B,工程局FZ,营业厅,5082936,0,否,,,1530,1024,3024,ZS-DH-NZ-1.domain,以太网,营业大厅,1,2008-04-17,,CT_zj_5801640006,网件AC22（虚）,嵊泗菜园电信老大楼,正常热点,嵊泗菜园电信枢纽大楼营业厅,,,
CT_zj_580c9900088,800416079,嵊泗菜园电信枢纽大楼网件, 其他,嵊泗县菜园镇云龙路1号,浙江,舟山市,嵊泗县,嵊泗分公司,122.45234,30.72731,金州,183.152.192.2-183.152.207.254,光纤,B,工程局FZ,阮卫其,13395801152,0,否,,,1516,1024,3024,ZS-DH-NZ-1.domain,以太网,办公区,2,2009-11-14,,CT_zj_5801640004,网件AC22（虚）,嵊泗菜园电信老大楼,正常热点,嵊泗菜园电信枢纽大楼网件,,,
CT_zj_580c0800089,80041007,嵊泗菜园香格里拉酒吧, 休闲娱乐吧,嵊泗县菜园镇董家弄3号,浙江,舟山市,嵊泗县,嵊泗分公司,122.45585,30.72609,金州,183.152.192.2-183.152.207.254,光纤,A,工程局FZ,阮卫其,13395801152,0,否,,,1532,1024,3026,ZS-DH-NZ-1.domain,以太网,包厢,2,2008-04-17,,CT_zj_5800840005,网件AC22（虚）,,正常热点,嵊泗菜园香格里拉酒吧,,,
CT_zj_580a0500095,800105085,定海临城海运学院国际交流中心, 学校,定海临城新区海天大道270号,浙江,舟山市,定海县,定海分公司,122.18065,29.98853,金州,183.152.192.2-183.152.207.254,光纤,A,浙贝,王国兵老师,18957226282,0,是,,,178,1001,3004,ZS-DH-NZ-1.domain,以太网,全覆盖,4,2009-09-17,,CT_zj_5800510024,贝尔AC38（虚）,定海临城海运学院,正常热点,定海临城海运学院国际交流中心,,,
CT_zj_580a1100097,800111066,定海海韵大厦, 商务楼,定海卫海路87号,浙江,舟山市,定海县,定海分公司,122.10018,30.01044,金州,183.152.192.2-183.152.207.254,光纤,C,浙贝,顾磊,15305809609,0,是,,,97,1041,3025,ZS-DH-NZ-1.domain,以太网,全覆盖,16,2009-09-17,,CT_zj_5801110009,华三AC定海76(主),,正常热点,定海海韵大厦,,,
CT_zj_580b0600098,800206056,普陀东港中翰酒店, 宾馆酒店,普陀东港兴普大道边上（欧尚超市对面）,浙江,舟山市,普陀县,普陀分公司,122.3169,29.96665,工程局,183.152.192.2-183.152.207.254,光纤,A,浙贝,乐谋勋,15305808705,0,是,,,502,1022,3025,ZS-DH-NZ-1.domain,以太网,全覆盖,8,2009-09-17,,CT_zj_5800620047,网件AC22（虚）,,正常热点,普陀东港中翰酒店,,,
CT_zj_580b0600099,800206057,普陀普陀山祥生大酒店, 宾馆酒店,舟山市普陀山,浙江,舟山市,普陀县,普陀分公司,122.398733,30.024531,工程局,183.152.192.2-183.152.207.254,光纤,D,浙贝,乐谋勋,15305808705,0,是,,,546,1022,3027,ZS-DH-NZ-1.domain,以太网,全覆盖,6,2009-09-17,,CT_zj_5800620055,网件AC22（虚）,,正常热点,普陀普陀山祥生大酒店,,,
CT_zj_580a0600100,800106067,定海小\综合楼, 宾馆酒店,定海解放东路和东河路交汇处,浙江,舟山市,定海县,定海分公司,122.11415,30.01828,金州,183.152.192.2-183.152.207.254,光纤,C,浙贝,顾磊,15305809609,0,是,,,29,1021,3029,ZS-DH-NZ-1.domain,以太网,全覆盖,8,2009-09-17,,CT_zj_5800610024,网件AC6（虚）,,正常热点,定海小\综合楼,,,
CT_zj_580b1200104,800211060,普陀沈家门信用社, 政府机关等事业单位,普陀区滨港路164号,浙江,舟山市,普陀县,普陀分公司,122.29911,29.94626,工程局,183.152.192.2-183.152.207.254,光纤,C,浙贝,乐谋勋,15305808705,0,是,,,654,1022,3032,ZS-DH-NZ-1.domain,以太网,1F-6F,1,2009-09-17,,CT_zj_5801220022,网件AC22（虚）,,正常热点,普陀沈家门信用社,,,
CT_zj_580b1200105,800211061,普陀沈家门鲁家峙交通大楼, 政府机关等事业单位,舟山市普陀区鲁家峙,浙江,舟山市,普陀县,普陀分公司,122.287278,29.938374,工程局,183.152.192.2-183.152.207.254,光纤,C,浙贝,乐谋勋,15305808705,0,是,,,632,1022,3024,ZS-DH-NZ-1.domain,以太网,全覆盖,13,2009-09-17,,CT_zj_5801220007,网件AC22（虚）,,正常热点,普陀沈家门鲁家峙交通大楼,,,
CT_zj_580a1200110,800111069,定海临城城建大楼, 政府机关等事业单位,定海临城行政中心内,浙江,舟山市,定海县,定海分公司,122.20172,29.98991,金州,183.152.192.2-183.152.207.254,光纤,C,依网,李师傅,13735036659,0,是,,,42,1001,3025,ZS-DH-NZ-1.domain,以太网,全覆盖,12,2010-03-31,,CT_zj_5801210015,贝尔AC38（虚）,,正常热点,定海临城城建大楼,,,
CT_zj_580a1200111,80013048,定海临城民政大楼, 政府机关等事业单位,定海临城新城区民政大楼,浙江,舟山市,定海县,定海分公司,122.19823,29.99604,金州,183.152.192.2-183.152.207.254,光纤,C,浙贝,顾磊,15305809609,0,是,,,51,1021,3026,ZS-DH-NZ-1.domain,以太网,全覆盖,3,2009-09-17,,CT_zj_5801210016,网件AC6（虚）,,正常热点,定海临城民政大楼,,,
CT_zj_580a1200113,800111071,定海临城中级人民法院, 政府机关等事业单位,定海临城新城区中级人民法院,浙江,舟山市,定海县,定海分公司,122.19919,29.99662,金州,183.152.192.2-183.152.207.254,光纤,B,浙贝,顾磊,15305809609,0,是,,,26,1021,3026,ZS-DH-NZ-1.domain,以太网,全覆盖,8,2009-09-17,,CT_zj_5801210009,网件AC6（虚）,,正常热点,定海临城中级人民法院,,,
CT_zj_580b1200114,800211062,普陀东港办证中心, 政府机关等事业单位,舟山市海莲路80号,浙江,舟山市,普陀县,普陀分公司,122.30955,29.95586,工程局,183.152.192.2-183.152.207.254,光纤,A,浙贝,乐谋勋,15305808705,0,是,,,635,1022,3025,ZS-DH-NZ-1.domain,以太网,普陀东港办证中心1楼,2,2009-09-17,,CT_zj_5801220014,网件AC22（虚）,,正常热点,普陀东港办证中心,,,
CT_zj_580a9900117,800111073,定海临城人才公寓, 其他,定海临城海宇路人才公寓,浙江,舟山市,定海县,定海分公司,122.20978,29.99066,金州,183.152.192.2-183.152.207.254,光纤,C,工程局SY,顾磊,15305809609,0,是,,,115,1041,3024,ZS-DH-NZ-1.domain,以太网,全覆盖,7,2009-09-17,,CT_zj_5809910011,华三AC定海76(主),,正常热点,定海临城人才公寓,,,
CT_zj_580b1500120,800214063,普陀东港欧尚超市, 大型购物广场,舟山市普陀区东港,浙江,舟山市,普陀县,普陀分公司,122.31655,29.96816,工程局,183.152.192.2-183.152.207.254,光纤,B,浙贝,乐谋勋,15305808705,0,是,,,503,1022,3026,ZS-DH-NZ-1.domain,以太网,全覆盖,8,2009-09-17,,CT_zj_5801520007,网件AC22（虚）,,正常热点,普陀东港欧尚超市,,,
CT_zj_580d9900122,800311036,岱山长涂金海湾船厂办公大楼, 其他,岱山县长涂镇,浙江,舟山市,岱山县,岱山分公司,122.2535,30.23829,金州,183.152.192.2-183.152.207.254,光纤,C,浙贝,魏幸淑,15305807947,0,是,,,1034,1023,3024,ZS-DH-NZ-1.domain,以太网,全覆盖,4,2009-09-17,,CT_zj_5809930019,网件AC6（虚）,岱山长涂金海湾船厂,正常热点,岱山长涂金海湾船厂办公大楼,,,
CT_zj_580c0600123,80042004,嵊泗菜园丰华国际酒店, 宾馆酒店,舟山市嵊泗县菜园镇云龙路,浙江,舟山市,嵊泗县,嵊泗分公司,122.45375,30.73006,金州,183.152.192.2-183.152.207.254,光纤,A,浙贝,阮卫其,13395801152,0,是,,,2002,1004,3025,ZS-DH-NZ-1.domain,以太网,全覆盖,17,2009-09-17,,CT_zj_5800640005,贝尔AC41（虚）,,正常热点,嵊泗菜园丰华国际酒店,,,
CT_zj_580c0600124,800406019,嵊泗菜园华侨饭店, 宾馆酒店,舟山市嵊泗县菜园镇东海路166号,浙江,舟山市,嵊泗县,嵊泗分公司,122.45412,30.72433,金州,183.152.192.2-183.152.207.254,光纤,A,浙贝,阮卫其,13395801152,0,是,,,2007,1004,3025,ZS-DH-NZ-1.domain,以太网,全覆盖,6,2009-09-17,,CT_zj_5800640006,贝尔AC41（虚）,,正常热点,嵊泗菜园华侨饭店,,,
CT_zj_580a0800125,80011034,定海环城东路清藤语茶, 休闲娱乐吧,定海环城东路12号,浙江,舟山市,定海县,定海分公司,122.10395,30.02552,金州,183.152.192.2-183.152.207.254,光纤,C,工程局FZ,顾经理,13386682777,0,是,,,269,1001,3024,ZS-DH-NZ-1.domain,以太网,全覆盖,4,2009-02-09,,CT_zj_5800810009,贝尔ac44（虚）,,正常热点,定海环城东路清藤语茶,,,
CT_zj_580a0800129,800108075,定海马岙青青世界, 休闲娱乐吧,定海马岙镇茂盛村,浙江,舟山市,定海县,定海分公司,122.08536,30.11073,金州,183.152.192.2-183.152.207.254,光纤,C,工程局FZ,顾磊,15305809609,0,是,,,60,1021,3027,ZS-DH-NZ-1.domain,以太网,大厅,1,2009-02-09,,CT_zj_5800810008,网件AC6（虚）,,正常热点,定海马岙青青世界,,,
CT_zj_580a1100108,800111086,定海港务大楼, 商务楼,定海区沿港东路港务大楼,浙江,舟山市,定海县,定海分公司,122.10052,30.00976,金州,183.152.192.2-183.152.207.254,光纤,C,浙贝,马经理,13505808825,0,是,,,55,1021,3025,ZS-DH-NZ-1.domain,以太网,全覆盖,5,2009-09-17,,CT_zj_5801110002,网件AC6（虚）,,正常热点,定海港务大楼,,,
CT_zj_580a0600131,80013037,定海新天鹅宾馆, 宾馆酒店,定海人民南路观音桥1号,浙江,舟山市,定海县,定海分公司,122.10291,30.01218,金州,183.152.192.2-183.152.207.254,光纤,B,工程局FZ,顾磊,15305809609,0,是,,,36,1021,3025,ZS-DH-NZ-1.domain,以太网,大堂吧,1,2009-02-09,,CT_zj_5800610032,网件AC6（虚）,,正常热点,定海新天鹅宾馆,,,
CT_zj_580b9900170,800206320,普陀沈家门天宝饭店室外, 其他,天宝饭店,浙江,舟山市,普陀县,普陀分公司,122.294,29.94947,工程局,183.152.192.2-183.152.207.254,光纤,A,工程局FZ,乐谋勋,15305808705,0,否,,,608,1022,3040,ZS-DH-NZ-1.domain,以太网,天宝饭店为中心的东海路段150米距离,1,2009-11-30,,CT_zj_5800620019,网件AC22（虚）,,正常热点,普陀沈家门天宝饭店室外,,,
CT_zj_580b9900171,800206321,普陀沈家门海兴楼宾馆, 其他,海兴楼宾馆,浙江,舟山市,普陀县,普陀分公司,122.29136,29.94604,工程局,183.152.192.2-183.152.207.254,光纤,A,工程局FZ,乐谋勋,15305808705,0,否,,,644,1022,3030,ZS-DH-NZ-1.domain,以太网,海兴楼为中心的东海路段150米距离,1,2009-11-30,,CT_zj_5800620020,网件AC22（虚）,,正常热点,普陀沈家门海兴楼宾馆,,,
CT_zj_580b9900178,800206322,普陀沈家门华银宾馆室外, 其他,华银宾馆,浙江,舟山市,普陀县,普陀分公司,122.30235,29.94642,工程局,183.152.192.2-183.152.207.254,光纤,B,工程局FZ,乐谋勋,15305808705,0,否,,,591,1022,3025,ZS-DH-NZ-1.domain,以太网,华银宾馆为中心的东西150米距离,1,2009-11-30,,CT_zj_5800620023,网件AC22（虚）,,正常热点,普陀沈家门华银宾馆室外,,,
CT_zj_580b9900179,800213323,普陀沈家门中医院室外, 其他,普陀中医院,浙江,舟山市,普陀县,普陀分公司,122.29369,29.94502,工程局,183.152.192.2-183.152.207.254,光纤,D,工程局FZ,乐谋勋,15305808705,0,否,,,646,1022,3030,ZS-DH-NZ-1.domain,以太网,中医院为中心的附近滨港路/靠西大街及道路,3,2009-11-30,,CT_zj_5801320003,网件AC22（虚）,,正常热点,普陀沈家门中医院室外,,,
CT_zj_580b1300051,80022008,普陀沈家门人民医院输液大厅, 医院,普陀区沈家门宫下路90号,浙江,舟山市,普陀县,普陀分公司,122.29581,29.94849,工程局,183.152.192.2-183.152.207.254,光纤,A,瑞达,乐谋勋,15305808705,0,否,,,609,1022,3027,ZS-DH-NZ-1.domain,以太网,输液大厅,1,2009-12-31,,CT_zj_5801320002,网件AC22（虚）,,正常热点,普陀沈家门人民医院输液大厅,,,
CT_zj_580c0600054,80042001,嵊泗大洋泽成大酒店, 宾馆酒店,嵊泗县大洋镇共建路77号,浙江,舟山市,嵊泗县,嵊泗分公司,122.07102,30.59436,金州,183.152.192.2-183.152.207.254,光纤,D,工程局FZ,阮卫其,13395801152,0,否,,,1506,1024,3024,ZS-DH-NZ-1.domain,以太网,大堂、会议室等,4,2008-04-17,,CT_zj_5800640007,网件AC22（虚）,,正常热点,嵊泗大洋泽成大酒店,,,
CT_zj_580c9900055,800406010,嵊泗菜园金弘宾馆, 其他,嵊泗金弘宾馆,浙江,舟山市,嵊泗县,嵊泗分公司,122.45603,30.72807,金州,183.152.192.2-183.152.207.254,光纤,C,工程局FZ,阮卫其,13395801152,0,否,,,1512,1024,3024,ZS-DH-NZ-1.domain,以太网,金弘宾馆外附近街道,1,2009-11-12,,CT_zj_5800640002,网件AC22（虚）,,正常热点,嵊泗菜园金弘宾馆,,,
CT_zj_580b1100056,80025029,普陀沈家门麒麟大厦室外, 商务楼,沈家门,浙江,舟山市,普陀县,普陀分公司,122.29538,29.94677,工程局,183.152.192.2-183.152.207.254,光纤,C,瑞达,乐谋勋,15305808705,0,是,,,651,1022,3032,ZS-DH-NZ-1.domain,以太网,一楼商铺,2,2009-12-31,,CT_zj_5801120019,网件AC22（虚）,,正常热点,普陀沈家门麒麟大厦室外,,,
CT_zj_580b0700058,80026045,普陀普陀山佛顶山广场室外, 休闲度假区,普陀山佛顶山,浙江,舟山市,普陀县,普陀分公司,122.38559,30.01135,工程局,183.152.192.2-183.152.207.254,光纤,D,瑞达,乐谋勋,15305808705,0,是,,,537,1022,3024,ZS-DH-NZ-1.domain,以太网,广场,1,2009-12-31,,CT_zj_5800720027,网件AC22（虚）,,正常热点,普陀普陀山佛顶山广场室外,,,
CT_zj_580b0600059,80023023,普陀沈家门新大地宾馆室外, 宾馆酒店,沈家门东海中路141号,浙江,舟山市,普陀县,普陀分公司,122.29291,29.94859,工程局,183.152.192.2-183.152.207.254,光纤,A,瑞达,乐谋勋,15305808705,0,是,,,610,1022,3027,ZS-DH-NZ-1.domain,以太网,新大地宾馆为中心的东海路段150米距离,1,2009-12-31,,CT_zj_5800620060,网件AC22（虚）,,正常热点,普陀沈家门新大地宾馆室外,,,
CT_zj_580b1600063,80026049,普陀沈家门电信大楼电视电话会议室, 电信自有,沈家门新街195号,浙江,舟山市,普陀县,普陀分公司,122.29849,29.95045,工程局,183.152.192.2-183.152.207.254,光纤,A,瑞达,乐谋勋,15305808705,0,是,,,601,1022,3026,ZS-DH-NZ-1.domain,以太网,会场,1,2009-12-31,,CT_zj_5801620010,网件AC22（虚）,普陀电信大楼,正常热点,普陀沈家门电信大楼电视电话会议室,,,
CT_zj_580b0800064,800208055,普陀沈家门蓝山咖啡厅, 休闲娱乐吧,沈家门新街195号,浙江,舟山市,普陀县,普陀分公司,122.29874,29.9505,工程局,183.152.192.2-183.152.207.254,光纤,A,瑞达,乐谋勋,15305808705,0,是,,,599,1022,3026,ZS-DH-NZ-1.domain,以太网,咖啡厅,2,2009-12-31,,CT_zj_5800820015,网件AC22（虚）,,正常热点,普陀沈家门蓝山咖啡厅,,,
CT_zj_580b0500068,80024025,普陀东港中学, 学校,普陀东港灵秀街91号,浙江,舟山市,普陀县,普陀分公司,122.312943,29.962145,工程局,183.152.192.2-183.152.207.254,光纤,A,瑞达,乐谋勋,15305808705,0,是,,,512,1022,3031,ZS-DH-NZ-1.domain,以太网,报告厅/教师办公楼,1,2010-01-05,,CT_zj_5800520015,网件AC22（虚）,,正常热点,普陀东港中学,,,
CT_zj_580a1300072,800113082,定海舟山市人民医院六号楼, 医院,定海区人民北路舟山医院六号楼,浙江,舟山市,定海县,定海分公司,122.09837,30.03098,金州,183.152.192.2-183.152.207.254,光纤,A,国人,高卫安（主任）,2147483647,0,是,,,17,1021,3026,ZS-DH-NZ-1.domain,以太网,全覆盖,2,2009-09-11,,CT_zj_5801310005,网件AC6（虚）,定海舟山医院,正常热点,定海舟山市人民医院六号楼,,,
CT_zj_580a0600073,800106083,定海博雁城市假日酒店, 宾馆酒店,定海区气象台路228号博雁城市假日酒店,浙江,舟山市,定海县,定海分公司,122.10774,30.03347,金州,183.152.192.2-183.152.207.254,光纤,C,国人,姜师傅,13646509939,0,是,,,102,1041,3026,ZS-DH-NZ-1.domain,以太网,全覆盖,8,2009-09-16,,CT_zj_5800610031,华三AC定海76(主),,正常热点,定海博雁城市假日酒店,,,
CT_zj_580a0600074,800106059,定海交通大酒店, 宾馆酒店,定海区解放西路180号交通大酒店,浙江,舟山市,定海县,定海分公司,122.09544,30.01767,金州,183.152.192.2-183.152.207.254,光纤,C,国人,应师傅,13857207100,0,是,,,24,1021,3028,ZS-DH-NZ-1.domain,以太网,全覆盖,5,2009-09-16,,CT_zj_5800610035,网件AC6（虚）,,正常热点,定海交通大酒店,,,
CT_zj_580a1100075,800111060,定海广电大楼, 商务楼,定海区东海东路舟山广电大楼,浙江,舟山市,定海县,定海分公司,122.10731,30.02359,金州,183.152.192.2-183.152.207.254,光纤,C,国人,孙师傅,18906800766,0,是,,,46,1021,3027,ZS-DH-NZ-1.domain,以太网,全覆盖,6,2009-09-16,,CT_zj_5801110003,网件AC6（虚）,,正常热点,定海广电大楼,,,
CT_zj_580a1300076,800113061,定海舟山女子医院, 医院,定海区环城西路舟山女子医院,浙江,舟山市,定海县,定海分公司,122.09936,30.01628,金州,183.152.192.2-183.152.207.254,光纤,C,国人,樊师傅,2147483647,0,是,,,30,1021,3028,ZS-DH-NZ-1.domain,以太网,全覆盖,2,2009-09-16,,CT_zj_5801310004,网件AC6（虚）,,正常热点,定海舟山女子医院,,,
CT_zj_580c0300079,800415011,嵊泗菜园汽车站, 长途汽车站,嵊泗汽车站,浙江,舟山市,嵊泗县,嵊泗分公司,122.45347,30.72312,金州,183.152.192.2-183.152.207.254,光纤,A,工程局FZ,阮卫其,13395801152,0,否,,,1513,1024,3024,ZS-DH-NZ-1.domain,以太网,售票大厅及车站附近街道,1,2009-11-12,,CT_zj_5800340001,网件AC22（虚）,,正常热点,嵊泗菜园汽车站,,,
CT_zj_580a9901003,800199116,定海临城公共自行车点市公安局站点, 其他,定海新城公共自行车点市公安局站点,浙江,舟山市,定海县,定海分公司,122.19795,29.98547,金州,183.152.192.2-183.152.207.254,光纤,C,工程局FZ,王经理,13706803815,0,否,,,291,1021,3029,ZS-DH-NZ-1.domain,以太网,市公安局站点周边街道区域,1,2010-09-29,,CT_zj_5809910003,网件AC6（虚）,,正常热点,定海临城公共自行车点市公安局站点,,,
CT_zj_580a9901004,800199117,定海临城公共自行车点舟山医院站点, 其他,定海新城公共自行车点舟山医院站点,浙江,舟山市,定海县,定海分公司,122.20861,29.99428,金州,183.152.192.2-183.152.207.254,光纤,C,工程局FZ,王经理,13706803815,0,否,,,112,1021,3025,ZS-DH-NZ-1.domain,以太网,舟山医院站点周边街道区域,1,2010-09-29,,CT_zj_5809910004,网件AC6（虚）,,正常热点,定海临城公共自行车点舟山医院站点,,,
CT_zj_580a9901005,800199118,定海临城公共自行车点市政府站点, 其他,定海新城公共自行车点市政府站点,浙江,舟山市,定海县,定海分公司,122.20353,29.98683,金州,183.152.192.2-183.152.207.254,光纤,C,工程局FZ,王经理,13706803815,0,否,,,113,1021,3029,ZS-DH-NZ-1.domain,以太网,市政府站点周边街道区域,1,2010-09-29,,CT_zj_5809910005,网件AC6（虚）,,正常热点,定海临城公共自行车点市政府站点,,,
CT_zj_580a9901006,800199119,定海临城公共自行车点丰茂菜场站点, 其他,定海新城公共自行车点丰茂菜场站点,浙江,舟山市,定海县,定海分公司,122.21237,29.9895,金州,183.152.192.2-183.152.207.254,光纤,C,工程局FZ,王经理,13706803815,0,否,,,114,1021,3029,ZS-DH-NZ-1.domain,以太网,丰茂菜场站点周边街道区域,1,2010-09-29,,CT_zj_5809910006,网件AC6（虚）,,正常热点,定海临城公共自行车点丰茂菜场站点,,,
CT_zj_580a9901007,800199120,定海临城公共自行车点桂花城站点, 其他,定海新城公共自行车点桂花城站点,浙江,舟山市,定海县,定海分公司,122.21239,29.98491,金州,183.152.192.2-183.152.207.254,光纤,C,工程局FZ,王经理,13706803815,0,否,,,115,1021,3024,ZS-DH-NZ-1.domain,以太网,桂花城站点周边街道区域,1,2010-09-29,,CT_zj_5809910007,网件AC6（虚）,,正常热点,定海临城公共自行车点桂花城站点,,,
CT_zj_580a1601013,800116124,定海文化路线路维护中心, 电信自有,定海文化路线路维护中心,浙江,舟山市,定海县,定海分公司,122.10354,30.0332,金州,183.152.192.2-183.152.207.254,光纤,A,工程局FZ,顾磊,15305809609,0,否,,,261,1001,3026,ZS-DH-NZ-1.domain,以太网,线路维护中心办公楼,4,2010-09-29,,CT_zj_5801610003,贝尔ac44（虚）,,正常热点,定海文化路线路维护中心,,,
CT_zj_580a0601014,800106125,定海东瀛路东瀛宾馆, 宾馆酒店,定海东瀛路东瀛宾馆,浙江,舟山市,定海县,定海分公司,122.11952,30.01847,金州,183.152.192.2-183.152.207.254,光纤,C,工程局FZ,顾磊,15305809609,0,否,,,31,1001,3024,ZS-DH-NZ-1.domain,以太网,东瀛宾馆2F客房,2,2010-09-29,,CT_zj_5800610010,贝尔AC38（虚）,,正常热点,定海东瀛路东瀛宾馆,,,
CT_zj_580b0701022,800299187,普陀朱家尖南沙原售票楼PHS网件, 休闲度假区,普陀朱家尖南沙原售票楼顶小灵通杆子,浙江,舟山市,普陀县,普陀分公司,122.402977,29.879593,工程局,183.152.192.2-183.152.207.254,光纤,A,工程局FZ,乐谋勋,15305808705,0,否,,,687,1022,3027,ZS-DH-NZ-1.domain,以太网,南沙售票处门口,1,2010-09-29,,CT_zj_5800720021,网件AC22（虚）,,正常热点,普陀朱家尖南沙原售票楼PHS网件,,,
CT_zj_580d9900262,800399007,岱山高亭海滨公园, 其他,岱山海滨公园,浙江,舟山市,岱山县,岱山分公司,122.19974,30.23898,金州,183.152.192.2-183.152.207.254,光纤,C,工程局FZ,魏幸淑,15305807947,0,否,,,1003,1023,3025,ZS-DH-NZ-1.domain,以太网,道路及周边商店,1,2010-01-07,,CT_zj_5809930011,网件AC6（虚）,,正常热点,岱山高亭海滨公园,,,
CT_zj_580c9900140,800415021,嵊泗菜园望海广场, 其他,嵊泗望海广场,浙江,舟山市,嵊泗县,嵊泗分公司,122.45616,30.7311,金州,183.152.192.2-183.152.207.254,光纤,A,工程局FZ,阮卫其,13395801152,0,否,,,1518,1024,3026,ZS-DH-NZ-1.domain,以太网,嵊泗菜园望海广场,1,2009-11-12,,CT_zj_5809940015,网件AC22（虚）,,正常热点,嵊泗菜园望海广场,,,
CT_zj_580c9900143,800411024,嵊泗菜园老水产局大楼, 其他,嵊泗老水产局大楼,浙江,舟山市,嵊泗县,嵊泗分公司,122.45617,30.72649,金州,183.152.192.2-183.152.207.254,光纤,C,工程局FZ,阮卫其,13395801152,0,否,,,1509,1024,3024,ZS-DH-NZ-1.domain,以太网,海滨中路老水产局附近路面,1,2009-11-12,,CT_zj_5809940009,网件AC22（虚）,,正常热点,嵊泗菜园老水产局大楼,,,
CT_zj_580c9900146,800408026,嵊泗菜园山海楼PHS, 其他,嵊泗山海楼,浙江,舟山市,嵊泗县,嵊泗分公司,122.45407,30.72503,金州,183.152.192.2-183.152.207.254,光纤,C,工程局FZ,阮卫其,13395801152,0,否,,,1520,1024,3024,ZS-DH-NZ-1.domain,以太网,东海路山海楼附近街道,1,2009-11-12,,CT_zj_5800840004,网件AC22（虚）,,正常热点,嵊泗菜园山海楼PHS,,,
CT_zj_580c9900147,800415027,嵊泗菜园青少年宫, 其他,嵊泗青少年宫,浙江,舟山市,嵊泗县,嵊泗分公司,122.45331,30.7235,金州,183.152.192.2-183.152.207.254,光纤,C,工程局FZ,阮卫其,13395801152,0,否,,,1521,1024,3024,ZS-DH-NZ-1.domain,以太网,东海路街道,1,2009-11-12,,CT_zj_5800540004,网件AC22（虚）,,正常热点,嵊泗菜园青少年宫,,,
CT_zj_580c9900150,800411030,嵊泗菜园电力公司大楼, 其他,嵊泗电力公司大楼,浙江,舟山市,嵊泗县,嵊泗分公司,122.45109,30.72871,金州,183.152.192.2-183.152.207.254,光纤,C,工程局FZ,阮卫其,13395801152,0,否,,,1523,1024,3024,ZS-DH-NZ-1.domain,以太网,海滨中路电力公司附近街道,1,2009-11-12,,CT_zj_5801140001,网件AC22（虚）,,正常热点,嵊泗菜园电力公司大楼,,,
CT_zj_580c1200151,800415031,嵊泗菜园图书馆, 政府机关等事业单位,嵊泗图书馆,浙江,舟山市,嵊泗县,嵊泗分公司,122.44778,30.72768,金州,183.152.192.2-183.152.207.254,光纤,C,工程局FZ,阮卫其,13395801152,0,否,,,1524,1024,3024,ZS-DH-NZ-1.domain,以太网,图书馆前附近街道,1,2009-11-12,,CT_zj_5801240012,网件AC22（虚）,,正常热点,嵊泗菜园图书馆,,,
CT_zj_580c9900154,800408034,嵊泗菜园新港饭店, 其他,嵊泗新港饭店,浙江,舟山市,嵊泗县,嵊泗分公司,122.4545,30.72601,金州,183.152.192.2-183.152.207.254,光纤,C,工程局FZ,阮卫其,13395801152,0,否,,,1527,1024,3024,ZS-DH-NZ-1.domain,以太网,东海中路新港饭店附近街道,1,2009-11-12,,CT_zj_5800640004,网件AC22（虚）,,正常热点,嵊泗菜园新港饭店,,,
CT_zj_580b0600156,800208068,普陀东港颐景园大酒店, 宾馆酒店,普陀东港颐景园室分,浙江,舟山市,普陀县,普陀分公司,122.31244,29.95734,工程局,183.152.192.2-183.152.207.254,光纤,A,国人,乐谋勋,15305808705,0,是,,,649,1022,3031,ZS-DH-NZ-1.domain,以太网,全覆盖,6,2009-11-14,,CT_zj_5800620050,网件AC22（虚）,,正常热点,普陀东港颐景园大酒店,,,
CT_zj_580b0600159,800206324,普陀沈家门名都大酒店, 宾馆酒店,普陀名都大酒店,浙江,舟山市,普陀县,普陀分公司,122.27961,29.94677,工程局,183.152.192.2-183.152.207.254,光纤,D,京信,乐谋勋,15305808705,0,是,,,624,1022,3030,ZS-DH-NZ-1.domain,以太网,半覆盖,2,2009-11-14,,CT_zj_5800620010,网件AC22（虚）,,正常热点,普陀沈家门名都大酒店,,,
CT_zj_580b0800160,800208224,普陀沈家门名N咖啡, 休闲娱乐吧,普陀名N咖啡,浙江,舟山市,普陀县,普陀分公司,122.27966,29.94677,工程局,183.152.192.2-183.152.207.254,光纤,B,京信,乐谋勋,15305808705,0,否,,,625,1022,3030,ZS-DH-NZ-1.domain,ATM,咖啡厅,1,2009-11-14,,CT_zj_5800820003,网件AC22（虚）,,正常热点,普陀沈家门名N咖啡,,,
CT_zj_580b9900164,800299230,普陀普陀山祥生大酒店宿舍楼, 其他,祥生大酒店宿舍楼,浙江,舟山市,普陀县,普陀分公司,122.397678,30.026152,工程局,183.152.192.2-183.152.207.254,光纤,D,京信,乐谋勋,15305808705,0,是,,,545,1022,3027,ZS-DH-NZ-1.domain,以太网,全覆盖,3,2009-11-30,,CT_zj_5809920013,网件AC22（虚）,,正常热点,普陀普陀山祥生大酒店宿舍楼,,,
CT_zj_580b9900166,800206072,普陀沈家门E家商务宾馆室外, 其他,E家商务宾馆,浙江,舟山市,普陀县,普陀分公司,122.2976,29.94599,工程局,183.152.192.2-183.152.207.254,光纤,B,工程局FZ,业主,13186798293,0,否,,,607,1022,3027,ZS-DH-NZ-1.domain,以太网,中大街、滨港路和大堂部分,2,2009-11-30,,CT_zj_5800620017,网件AC22（虚）,,正常热点,普陀沈家门E家商务宾馆室外,,,
CT_zj_580b9900167,800206073,普陀沈家门海伦宾馆室外, 其他,海伦宾馆,浙江,舟山市,普陀县,普陀分公司,122.29339,29.94636,工程局,183.152.192.2-183.152.207.254,光纤,A,工程局FZ,乐谋勋,15305808705,0,否,,,603,1022,3027,ZS-DH-NZ-1.domain,以太网,同济路246号为中心的东西150米距离、宾馆大部分房间,1,2009-11-30,,CT_zj_5800620018,网件AC22（虚）,,正常热点,普陀沈家门海伦宾馆室外,,,
CT_zj_580b0501806,800205341,普陀朱家尖佛学院参学会馆餐厅, 学校,普陀朱家尖乌石塘路,浙江,舟山市,普陀县,普陀分公司,122.390954,29.929022,工程局,183.152.192.2-183.152.207.254,光纤,C,浙贝,乐谋勋,15305808705,0,否,,,784,1022,3027,ZS-DH-NZ-1.domain,以太网,参学会馆（餐厅）,1,2011-01-07,,CT_zj_5800520043,网件AC22（虚）,普陀朱家尖佛学院,正常热点,普陀朱家尖佛学院参学会馆餐厅,,,
CT_zj_580b1600172,800216326,普陀沈家门西大电信合作营业厅, 电信自有,西大电信合作营业厅,浙江,舟山市,普陀县,普陀分公司,122.29648,29.9462,工程局,183.152.192.2-183.152.207.254,光纤,A,工程局FZ,乐谋勋,15305808705,0,否,,,606,1022,3027,ZS-DH-NZ-1.domain,以太网,以西大电信合作营业厅为中心的东西150米距离,1,2009-11-30,,CT_zj_5801620005,网件AC22（虚）,,正常热点,普陀沈家门西大电信合作营业厅,,,
CT_zj_580b9900174,800206076,普陀沈家门大自然宾馆室外, 其他,大自然宾馆,浙江,舟山市,普陀县,普陀分公司,122.29409,29.94673,工程局,183.152.192.2-183.152.207.254,光纤,B,工程局FZ,乐谋勋,15305808705,0,否,,,639,1022,3028,ZS-DH-NZ-1.domain,以太网,以大自然宾馆为中心的东西150米距离,1,2009-11-30,,CT_zj_5800620021,网件AC22（虚）,,正常热点,普陀沈家门大自然宾馆室外,,,
CT_zj_580b9900175,800206327,普陀沈家门晶昌大厦室外, 其他,晶昌大厦,浙江,舟山市,普陀县,普陀分公司,122.29509,29.94577,工程局,183.152.192.2-183.152.207.254,光纤,B,工程局FZ,乐谋勋,15305808705,0,否,,,645,1022,3030,ZS-DH-NZ-1.domain,以太网,以晶昌大厦为中心的一定范围以及分流,2,2009-11-30,,CT_zj_5801120001,网件AC22（虚）,,正常热点,普陀沈家门晶昌大厦室外,,,
CT_zj_580b0800176,800208077,普陀六横龙山酒吧一条街室外, 休闲娱乐吧,龙山酒吧一条街,浙江,舟山市,普陀县,普陀分公司,122.08654,29.77764,工程局,183.152.192.2-183.152.207.254,光纤,D,工程局FZ,乐谋勋,15305808705,0,否,,,527,1022,3025,ZS-DH-NZ-1.domain,以太网,以龙山机房为中心的东西150米距离,1,2009-11-30,,CT_zj_5800820016,网件AC22（虚）,,正常热点,普陀六横龙山酒吧一条街室外,,,
CT_zj_580b9900181,800206328,普陀沈家门滨港路天圆商务宾馆室外, 其他,天圆商务宾馆,浙江,舟山市,普陀县,普陀分公司,122.29278,29.94523,工程局,183.152.192.2-183.152.207.254,光纤,A,工程局FZ,乐谋勋,15305808705,0,否,,,647,1022,3030,ZS-DH-NZ-1.domain,以太网,天圆宾馆为中心的兴建路南北150米距离,1,2009-11-30,,CT_zj_5800620025,网件AC22（虚）,,正常热点,普陀沈家门滨港路天圆商务宾馆室外,,,
CT_zj_580b9900182,800206079,普陀沈家门滨港路金海港宾馆室外, 其他,金海港宾馆,浙江,舟山市,普陀县,普陀分公司,122.31029,29.94624,工程局,183.152.192.2-183.152.207.254,光纤,A,工程局FZ,乐谋勋,15305808705,0,否,,,628,1022,3031,ZS-DH-NZ-1.domain,以太网,金海港宾馆为中心的东西南北150米距离,1,2009-11-30,,CT_zj_5800620026,网件AC22（虚）,,正常热点,普陀沈家门滨港路金海港宾馆室外,,,
CT_zj_580b9900183,800206329,普陀沈家门滨港路金港湾宾馆室外, 其他,金港湾宾馆,浙江,舟山市,普陀县,普陀分公司,122.31495,29.94493,工程局,183.152.192.2-183.152.207.254,光纤,C,工程局FZ,乐谋勋,15305808705,0,否,,,631,1022,3031,ZS-DH-NZ-1.domain,以太网,金港湾为中心的滨港路南北150米路段,1,2009-11-30,,CT_zj_5800620027,网件AC22（虚）,,正常热点,普陀沈家门滨港路金港湾宾馆室外,,,
CT_zj_580b9900186,800206225,普陀沈家门晨晖宾馆室外, 其他,晨晖宾馆,浙江,舟山市,普陀县,普陀分公司,122.30721,29.94679,工程局,183.152.192.2-183.152.207.254,光纤,B,工程局FZ,业主,3027777,0,否,,,629,1022,3031,ZS-DH-NZ-1.domain,ATM,普陀晨晖宾馆附近滨港路,1,2009-11-30,,CT_zj_5800620029,网件AC22（虚）,,正常热点,普陀沈家门晨晖宾馆室外,,,
CT_zj_580b9900187,800206334,普陀沈家门天府宾馆室外, 其他,天府宾馆,浙江,舟山市,普陀县,普陀分公司,122.29906,29.94655,工程局,183.152.192.2-183.152.207.254,光纤,B,工程局FZ,乐谋勋,15305808705,0,否,,,656,1022,3032,ZS-DH-NZ-1.domain,以太网,东河路从滨港路交叉路口向东150米路段,1,2009-11-30,,CT_zj_5800620030,网件AC22（虚）,,正常热点,普陀沈家门天府宾馆室外,,,
CT_zj_580b9900193,800214335,普陀沈家门江南布衣北侧室外, 其他,江南布衣北侧墙上,浙江,舟山市,普陀县,普陀分公司,122.29546,29.94559,工程局,183.152.192.2-183.152.207.254,光纤,B,工程局FZ,乐谋勋,15305808705,0,否,,,653,1022,3032,ZS-DH-NZ-1.domain,以太网,东海明珠附近区域,1,2009-11-30,,CT_zj_5809920022,网件AC22（虚）,,正常热点,普陀沈家门江南布衣北侧室外,,,
CT_zj_580b0700194,800215080,普陀沈家门北安公园海中洲后面室外, 休闲度假区,北安公园海中洲后面,浙江,舟山市,普陀县,普陀分公司,122.29819,29.95067,工程局,183.152.192.2-183.152.207.254,光纤,A,工程局FZ,乐谋勋,15305808705,0,否,,,598,1022,3026,ZS-DH-NZ-1.domain,以太网,北安公园西及海中洲娱乐总汇,1,2009-11-30,,CT_zj_5800720029,网件AC22（虚）,普陀沈家门北安公园,正常热点,普陀沈家门北安公园海中洲后面室外,,,
CT_zj_580b0600195,800206081,普陀六横东鸿大酒店宿舍楼, 宾馆酒店,东鸿大酒店,浙江,舟山市,普陀县,普陀分公司,122.194821,29.703638,工程局,183.152.192.2-183.152.207.254,光纤,C,工程局FZ,乐谋勋,15305808705,0,否,,,534,1022,3029,ZS-DH-NZ-1.domain,以太网,宿舍楼对面的办公室和下面空旷地,1,2009-11-30,,CT_zj_5800620031,网件AC22（虚）,普陀六横东鸿大酒店,正常热点,普陀六横东鸿大酒店宿舍楼,,,
CT_zj_580b9900198,800299231,普陀六横龙山中远船厂协和小区室外, 其他,协和小区,浙江,舟山市,普陀县,普陀分公司,122.0807,29.77743,工程局,183.152.192.2-183.152.207.254,光纤,C,工程局FZ,乐谋勋,15305808705,0,否,,,536,1022,3028,ZS-DH-NZ-1.domain,ATM,2.3.4.5号楼,9,2009-11-30,,CT_zj_5809920003,网件AC22（虚）,普陀六横龙山中远船厂,正常热点,普陀六横龙山中远船厂协和小区室外,,,
CT_zj_580a1200341,800112078,定海临城市政府大楼, 政府机关等事业单位,定海临城新区市政府大楼,浙江,舟山市,定海县,定海分公司,122.203,29.98789,金州,183.152.192.2-183.152.207.254,光纤,C,浙贝,密处,13905807761,0,是,,,61,1021,3024,ZS-DH-NZ-1.domain,以太网,全覆盖,17,2010-05-11,,CT_zj_5801210001,网件AC6（虚）,,正常热点,定海临城市政府大楼,,,
CT_zj_580a0600342,800106079,定海东港大酒店, 宾馆酒店,定海环城南路口,浙江,舟山市,定海县,定海分公司,122.10878,30.01222,金州,183.152.192.2-183.152.207.254,光纤,C,浙贝,顾磊,15305809609,0,是,,,63,1021,3024,ZS-DH-NZ-1.domain,以太网,1、2F大堂，6F会议室,2,2010-05-11,,CT_zj_5800610001,网件AC6（虚）,,正常热点,定海东港大酒店,,,
CT_zj_580a1600343,800116080,定海南珍电信B楼, 电信自有,定海区人民南路10号,浙江,舟山市,定海县,定海分公司,122.10302,30.01696,金州,183.152.192.2-183.152.207.254,光纤,A,浙贝,顾磊,15305809609,0,是,,,25,1001,3024,ZS-DH-NZ-1.domain,以太网,1~4F,1,2010-05-11,,CT_zj_5801610001,贝尔AC38（虚）,,正常热点,定海南珍电信B楼,,,
CT_zj_580b9901682,800299283,普陀沈家门东海中路外河路交叉口电信杆, 其他,普陀沈家门东海中路.外河路交叉口电信电杆,浙江,舟山市,普陀县,普陀分公司,122.28364,29.94725,工程局,183.152.192.2-183.152.207.254,光纤,B,工程局FZ,乐谋勋,15305808705,0,否,,,738,1022,3033,ZS-DH-NZ-1.domain,以太网,外河口路东海中路交界处周边街道店面,1,2010-12-15,,CT_zj_5809920062,网件AC22（虚）,,正常热点,普陀沈家门东海中路外河路交叉口电信杆,,,
CT_zj_580a1201801,800112263,定海临城市政府东二号楼, 政府机关等事业单位,定海临城市政府东二号楼,浙江,舟山市,定海县,定海分公司,122.20587,29.98672,金州,183.152.192.2-183.152.207.254,光纤,C,浙贝,密处,13905807761,0,是,,,265,1021,3024,ZS-DH-NZ-1.domain,以太网,全覆盖,22,2011-01-07,,CT_zj_5801210027,网件AC6（虚）,,正常热点,定海临城市政府东二号楼,,,
CT_zj_580b0501802,800205337,普陀朱家尖佛学院行政楼宿舍, 学校,普陀朱家尖乌石塘路,浙江,舟山市,普陀县,普陀分公司,122.3932,29.93022,工程局,183.152.192.2-183.152.207.254,光纤,C,浙贝,乐谋勋,15305808705,0,否,,,778,1022,3027,ZS-DH-NZ-1.domain,以太网,行政楼（宿舍）,1,2011-01-07,,CT_zj_5800520039,网件AC22（虚）,普陀朱家尖佛学院,正常热点,普陀朱家尖佛学院行政楼宿舍,,,
CT_zj_580b0501803,800205338,普陀朱家尖佛学院参学会馆客房C, 学校,普陀朱家尖乌石塘路,浙江,舟山市,普陀县,普陀分公司,122.390613,29.928272,工程局,183.152.192.2-183.152.207.254,光纤,C,浙贝,乐谋勋,15305808705,0,否,,,780,1022,3027,ZS-DH-NZ-1.domain,以太网,参学会馆（客房C）,1,2011-01-07,,CT_zj_5800520040,网件AC22（虚）,普陀朱家尖佛学院,正常热点,普陀朱家尖佛学院参学会馆客房C,,,
CT_zj_580b0501805,800205340,普陀朱家尖佛学院参学会馆客房A, 学校,普陀朱家尖乌石塘路,浙江,舟山市,普陀县,普陀分公司,122.390969,29.928752,工程局,183.152.192.2-183.152.207.254,光纤,C,浙贝,乐谋勋,15305808705,0,否,,,783,1022,3027,ZS-DH-NZ-1.domain,以太网,参学会馆（客房A）、回廊,1,2011-01-07,,CT_zj_5800520042,网件AC22（虚）,普陀朱家尖佛学院,正常热点,普陀朱家尖佛学院参学会馆客房A,,,
CT_zj_580a0600029,80012007,定海息来海景酒店, 宾馆酒店,定海区卫海路78号,浙江,舟山市,定海县,定海分公司,122.10079,30.01042,金州,183.152.192.2-183.152.207.254,光纤,C,杭贝,支经理,13567666102,0,是,,,48,1021,3025,ZS-DH-NZ-1.domain,以太网,大堂、会议室等,4,2008-04-17,,CT_zj_5800610028,网件AC6（虚）,,正常热点,定海息来海景酒店,,,
CT_zj_580b0100049,80022011,普陀朱家尖普陀山机场, 机场,普陀区朱家尖,浙江,舟山市,普陀县,普陀分公司,122.35748,29.93526,工程局,183.152.192.2-183.152.207.254,光纤,A,瑞达,乐谋勋,15305808705,0,否,,,682,1022,3026,ZS-DH-NZ-1.domain,以太网,全覆盖,4,2009-12-31,,CT_zj_5800120001,网件AC22（虚）,,正常热点,普陀朱家尖普陀山机场,,,
CT_zj_580b0400053,80022015,普陀普陀山客运码头, 码头,普陀山梅岑路1号,浙江,舟山市,普陀县,普陀分公司,122.37602,29.97706,工程局,183.152.192.2-183.152.207.254,光纤,D,瑞达,乐谋勋,15305808705,0,否,,,1020,1042,3026,ZS-DH-NZ-1.domain,以太网,候船厅、茶室,4,2009-12-31,,CT_zj_5800420005,华三AC普陀78(主),,正常热点,普陀普陀山客运码头,,,
CT_zj_580b0600018,800206083,普陀沈家门天丰楼大酒店, 宾馆酒店,普陀天丰楼大酒店,浙江,舟山市,普陀县,普陀分公司,122.29927,29.94967,工程局,183.152.192.2-183.152.207.254,光纤,C,浙贝,乐谋勋,15305808705,0,否,,,242,1002,3025,ZS-DH-NZ-1.domain,以太网,1F电梯附近和6F会议室,1,2009-12-31,,CT_zj_5800620045,贝尔AC41（虚）,普陀天丰楼大酒店,正常热点,普陀沈家门天丰楼大酒店,,,
CT_zj_580b0600382,800206086,普陀普陀山云馨宾馆, 宾馆酒店,舟山市普陀山,浙江,舟山市,普陀县,普陀分公司,122.37277,29.97997,工程局,183.152.192.2-183.152.207.254,光纤,D,依网,乐谋勋,15305808705,0,是,,,671,1002,3024,ZS-DH-NZ-1.domain,以太网,1~2F,2,2010-05-11,,CT_zj_5800620002,贝尔ac47（虚）,,正常热点,普陀普陀山云馨宾馆,,,
CT_zj_580a0600137,80013030,定海金海滩大酒店, 宾馆酒店,定海解放东路135号,浙江,舟山市,定海县,定海分公司,122.10666,30.01867,金州,183.152.192.2-183.152.207.254,光纤,C,国人,顾磊,15305809609,0,是,,,84,1021,3004,ZS-DH-NZ-1.domain,以太网,全覆盖,3,2009-02-09,,CT_zj_5800610034,网件AC6（虚）,,正常热点,定海金海滩大酒店,,,
CT_zj_580a0600363,800106089,定海钻石楼大酒店, 宾馆酒店,定海人民南路176号,浙江,舟山市,定海县,定海分公司,122.10209,30.01063,金州,183.152.192.2-183.152.207.254,光纤,B,浙贝,陈经理,13505802010,0,是,,,12,1021,3025,ZS-DH-NZ-1.domain,以太网,全覆盖,6,2010-05-11,,CT_zj_5800610002,网件AC6（虚）,,正常热点,定海钻石楼大酒店,,,
CT_zj_580a1200365,800112090,定海临城质量监督局, 政府机关等事业单位,定海临城新区质量监督局,浙江,舟山市,定海县,定海分公司,122.19925,29.99776,金州,183.152.192.2-183.152.207.254,光纤,C,浙贝,顾磊,15305809609,0,是,,,143,1041,3026,ZS-DH-NZ-1.domain,以太网,全覆盖,11,2010-05-11,,CT_zj_5801210005,华三AC定海76(主),,正常热点,定海临城质量监督局,,,
CT_zj_580d1200280,800312038,岱山高亭镇政府, 政府机关等事业单位,岱山高亭镇政府,浙江,舟山市,岱山县,岱山分公司,122.1976,30.2461,金州,183.152.192.2-183.152.207.254,光纤,C,工程局FZ,魏幸淑,15305807947,0,否,,,1020,1023,3025,ZS-DH-NZ-1.domain,以太网,镇政府大院及办公楼,1,2010-01-07,,CT_zj_5801230008,网件AC6（虚）,,正常热点,岱山高亭镇政府,,,
CT_zj_580d0400282,800304040,岱山秀山兰山码头, 码头,岱山秀山兰山码头,浙江,舟山市,岱山县,岱山分公司,122.1434,30.15655,金州,183.152.192.2-183.152.207.254,光纤,C,工程局FZ,魏幸淑,15305807947,0,否,,,1022,1023,3024,ZS-DH-NZ-1.domain,以太网,候船室,1,2010-01-07,,CT_zj_5800430003,网件AC6（虚）,,正常热点,岱山秀山兰山码头,,,
CT_zj_580d0300283,800303041,岱山秀山石井潭车站, 长途汽车站,岱山秀山石井潭车站,浙江,舟山市,岱山县,岱山分公司,122.157058,30.160255,金州,183.152.192.2-183.152.207.254,光纤,C,工程局FZ,魏幸淑,15305807947,0,否,,,1035,1023,3024,ZS-DH-NZ-1.domain,以太网,石井潭车站附近街道,1,2010-06-29,,CT_zj_5800330002,网件AC6（虚）,,正常热点,岱山秀山石井潭车站,,,
CT_zj_580d9900284,800399042,岱山秀山石井潭石家29号, 其他,岱山秀山乡石井潭石家29号,浙江,舟山市,岱山县,岱山分公司,122.159245,30.161045,金州,183.152.192.2-183.152.207.254,光纤,D,工程局FZ,魏幸淑,15305807947,0,否,,,1028,1023,3024,ZS-DH-NZ-1.domain,以太网,民工宿舍及道路,1,2010-06-29,,CT_zj_5809930016,网件AC6（虚）,,正常热点,岱山秀山石井潭石家29号,,,
CT_zj_580d9900285,800399043,岱山秀山石井潭杨家18号, 其他,岱山秀山乡石井潭杨家18号,浙江,舟山市,岱山县,岱山分公司,122.158163,30.160864,金州,183.152.192.2-183.152.207.254,光纤,D,工程局FZ,魏幸淑,15305807947,0,否,,,1025,1023,3024,ZS-DH-NZ-1.domain,以太网,民工宿舍及道路,1,2010-06-29,,CT_zj_5809930013,网件AC6（虚）,,正常热点,岱山秀山石井潭杨家18号,,,
CT_zj_580d9900286,800399044,岱山秀山石井潭袁家27号, 其他,岱山秀山乡石井潭袁家27号,浙江,舟山市,岱山县,岱山分公司,122.16093,30.17077,金州,183.152.192.2-183.152.207.254,光纤,D,工程局FZ,魏幸淑,15305807947,0,否,,,1032,1023,3024,ZS-DH-NZ-1.domain,以太网,袁家27号附近街道,1,2010-06-29,,CT_zj_5809930018,网件AC6（虚）,,正常热点,岱山秀山石井潭袁家27号,,,
CT_zj_580d9900287,800399045,岱山秀山石井潭袁家, 其他,岱山秀山乡石井潭袁家,浙江,舟山市,岱山县,岱山分公司,122.160265,30.161092,金州,183.152.192.2-183.152.207.254,光纤,D,工程局FZ,魏幸淑,15305807947,0,否,,,1026,1023,3024,ZS-DH-NZ-1.domain,以太网,袁家附近街道,1,2010-06-29,,CT_zj_5809930014,网件AC6（虚）,,正常热点,岱山秀山石井潭袁家,,,
CT_zj_580a1200421,800112096,定海临城海关大楼, 政府机关等事业单位,定海临城海景路599号,浙江,舟山市,定海县,定海分公司,122.19629,29.98292,金州,183.152.192.2-183.152.207.254,光纤,C,工程局SY,工程部,13906801131,0,是,,,113,1041,3025,ZS-DH-NZ-1.domain,以太网,1~5F,9,2010-05-11,,CT_zj_5801210007,华三AC定海76(主),,正常热点,定海临城海关大楼,,,
CT_zj_580a1200422,800112097,定海舟山市临城交警支队, 政府机关等事业单位,定海市临城新区交警支队,浙江,舟山市,定海县,定海分公司,122.19009,29.99053,金州,183.152.192.2-183.152.207.254,光纤,B,浙贝,顾磊,15305809609,0,是,,,168,1041,3027,ZS-DH-NZ-1.domain,以太网,全覆盖,8,2010-05-11,,CT_zj_5801210004,华三AC定海76(主),,正常热点,定海舟山市临城交警支队,,,
CT_zj_580a1200423,800112098,定海临城交通委大楼, 政府机关等事业单位,定海市临城新区交通委大楼,浙江,舟山市,定海县,定海分公司,122.20571,29.9877,金州,183.152.192.2-183.152.207.254,光纤,C,浙贝,顾磊,15305809609,0,是,,,110,1041,3025,ZS-DH-NZ-1.domain,以太网,全覆盖,12,2010-05-11,,CT_zj_5801210006,华三AC定海76(主),,正常热点,定海临城交通委大楼,,,
CT_zj_580b1600461,800216091,普陀六横蛟头电信营业厅, 电信自有,六横蛟头支局营业厅,浙江,舟山市,普陀县,普陀分公司,122.11813,29.74607,工程局,183.152.192.2-183.152.207.254,光纤,D,工程局FZ,营业厅,6082200,0,是,,,522,1022,3024,ZS-DH-NZ-1.domain,以太网,蛟头支局外附近街道分流,1,2010-05-11,,CT_zj_5801620001,网件AC22（虚）,,正常热点,普陀六横蛟头电信营业厅,,,
CT_zj_580b0600464,800206094,普陀六横浩舟大酒店, 宾馆酒店,六横浩舟大酒店,浙江,舟山市,普陀县,普陀分公司,122.118002,29.744615,工程局,183.152.192.2-183.152.207.254,光纤,D,工程局FZ,乐谋勋,15305808705,0,是,,,620,1022,3024,ZS-DH-NZ-1.domain,以太网,酒店大堂及二楼茶吧,1,2010-05-11,,CT_zj_5800620003,网件AC22（虚）,,正常热点,普陀六横浩舟大酒店,,,
CT_zj_580b1600465,800216095,普陀六横台门电信营业厅, 电信自有,六横台门电信营业厅,浙江,舟山市,普陀县,普陀分公司,122.19337,29.70002,工程局,183.152.192.2-183.152.207.254,光纤,D,工程局FZ,营业厅,6071233,0,是,,,533,1022,3027,ZS-DH-NZ-1.domain,以太网,台门营业大厅,1,2010-05-11,,CT_zj_5801620003,网件AC22（虚）,,正常热点,普陀六横台门电信营业厅,,,
CT_zj_580b0800466,800208096,普陀六横蛟头欧曼咖啡厅, 休闲娱乐吧,普陀区六横镇,浙江,舟山市,普陀县,普陀分公司,122.11442,29.74441,工程局,183.152.192.2-183.152.207.254,光纤,D,浙贝,乐谋勋,15305808705,0,是,,,520,1022,3024,ZS-DH-NZ-1.domain,以太网,1F、2F,3,2010-05-11,,CT_zj_5800820001,网件AC22（虚）,,正常热点,普陀六横蛟头欧曼咖啡厅,,,
CT_zj_580b1100481,800299097,普陀东港港汇广场, 商务楼,舟山市普陀区海莲路253号,浙江,舟山市,普陀县,普陀分公司,122.31354,29.96908,工程局,183.152.192.2-183.152.207.254,光纤,B,工程局,乐谋勋,15305808705,0,是,,,1162,1042,3024,ZS-DH-NZ-1.domain,以太网,全覆盖,32,2010-05-11,,CT_zj_5801520005,华三AC普陀78(主),,正常热点,普陀东港港汇广场,,,
CT_zj_580b1600563,800216103,普陀登步电信营业厅, 电信自有,普陀登步电信营业厅,浙江,舟山市,普陀县,普陀分公司,122.29864,29.87604,工程局,183.152.192.2-183.152.207.254,光纤,D,工程局SY,营业厅,6668232,0,否,,,672,1022,3025,ZS-DH-NZ-1.domain,以太网,营业厅及对面道路,1,2010-05-11,,CT_zj_5801620008,网件AC22（虚）,,正常热点,普陀登步电信营业厅,,,
CT_zj_580b1200564,800212104,普陀登步乡政府, 政府机关等事业单位,普陀登步乡政府,浙江,舟山市,普陀县,普陀分公司,122.29798,29.87688,工程局,183.152.192.2-183.152.207.254,光纤,D,工程局SY,乐谋勋,15305808705,0,否,,,671,1022,3025,ZS-DH-NZ-1.domain,以太网,乡政府大楼及院子,1,2010-05-11,,CT_zj_5801220002,网件AC22（虚）,,正常热点,普陀登步乡政府,,,
CT_zj_580b1600565,800216105,普陀蚂蚁岛电信营业厅, 电信自有,普陀蚂蚁电信营业厅,浙江,舟山市,普陀县,普陀分公司,122.26512,29.8669,工程局,183.152.192.2-183.152.207.254,光纤,D,工程局SY,营业厅,6666000,0,否,,,674,1022,3026,ZS-DH-NZ-1.domain,以太网,营业厅及附近道路,1,2010-05-11,,CT_zj_5801620009,网件AC22（虚）,,正常热点,普陀蚂蚁岛电信营业厅,,,
CT_zj_580b1100157,800206065,普陀沈家门滨港大厦, 商务楼,普陀滨港大厦,浙江,舟山市,普陀县,普陀分公司,122.30312,29.94665,工程局,183.152.192.2-183.152.207.254,光纤,B,依网,业主,6696046,0,是,,,593,1022,3025,ZS-DH-NZ-1.domain,以太网,普陀滨港大厦,8,2009-11-14,,CT_zj_5800620054,网件AC22（虚）,,正常热点,普陀沈家门滨港大厦,,,
CT_zj_580b0600102,800206223,普陀沈家门天丰楼大酒店网件, 宾馆酒店,舟山市普陀区沈家门东海东路42号,浙江,舟山市,普陀县,普陀分公司,122.2994,29.94967,工程局,183.152.192.2-183.152.207.254,光纤,B,浙贝,乐谋勋,15305808705,0,是,,,604,1022,3027,ZS-DH-NZ-1.domain,以太网,全覆盖,5,2010-01-07,,CT_zj_5800620052,网件AC22（虚）,普陀天丰楼大酒店,正常热点,普陀沈家门天丰楼大酒店网件,,,
CT_zj_580c9900145,800414020,嵊泗菜园新一百二楼, 其他,嵊泗新一百二楼,浙江,舟山市,嵊泗县,嵊泗分公司,122.45446,30.72673,金州,183.152.192.2-183.152.207.254,光纤,C,工程局FZ,阮卫其,13395801152,0,否,,,1511,1024,3024,ZS-DH-NZ-1.domain,以太网,海滨中路新一百附近路面,1,2009-11-12,,CT_zj_5801540003,网件AC22（虚）,,正常热点,嵊泗菜园新一百二楼,,,
CT_zj_580b9900180,800206066,普陀沈家门东方红商务宾馆室外, 其他,东方红商务宾馆,浙江,舟山市,普陀县,普陀分公司,122.29603,29.94571,工程局,183.152.192.2-183.152.207.254,光纤,B,工程局FZ,乐谋勋,15305808705,0,否,,,605,1022,3027,ZS-DH-NZ-1.domain,以太网,以东方红商务酒店为中心的东西150米距离,1,2009-11-30,,CT_zj_5800620024,网件AC22（虚）,,正常热点,普陀沈家门东方红商务宾馆室外,,,
CT_zj_580c1200541,800412035,嵊泗菜园审计局, 政府机关等事业单位,嵊泗审计局大楼顶,浙江,舟山市,嵊泗县,嵊泗分公司,122.45319,30.72268,金州,183.152.192.2-183.152.207.254,光纤,C,工程局FZ,阮卫其,13395801152,0,否,,,1547,1024,3025,ZS-DH-NZ-1.domain,以太网,审计局、航运公司,1,2010-05-11,,CT_zj_5801240001,网件AC22（虚）,,正常热点,嵊泗菜园审计局,,,
CT_zj_580c0600542,800499036,嵊泗菜园南馨山庄机房, 宾馆酒店,南馨山庄机房外墙,浙江,舟山市,嵊泗县,嵊泗分公司,122.45171,30.72273,金州,183.152.192.2-183.152.207.254,光纤,C,工程局FZ,阮卫其,13395801152,0,否,,,1544,1024,3025,ZS-DH-NZ-1.domain,以太网,南馨山庄,1,2010-05-11,,CT_zj_5800640008,网件AC22（虚）,,正常热点,嵊泗菜园南馨山庄机房,,,
CT_zj_580c0600545,800406039,嵊泗菜园海湾大酒店, 宾馆酒店,嵊泗海湾大酒店楼顶,浙江,舟山市,嵊泗县,嵊泗分公司,122.45741,30.72776,金州,183.152.192.2-183.152.207.254,光纤,C,工程局FZ,阮卫其,13395801152,0,否,,,1550,1024,3027,ZS-DH-NZ-1.domain,以太网,海湾大酒店及周围街面,1,2010-05-11,,CT_zj_5800640001,网件AC22（虚）,,正常热点,嵊泗菜园海湾大酒店,,,
CT_zj_580b9900701,800299153,普陀沈家门渔市大街机房东墙室外, 其他,普陀沈家门渔市大街机房东墙,浙江,舟山市,普陀县,普陀分公司,122.28336,29.94353,工程局,183.152.192.2-183.152.207.254,光纤,A,工程局SY,乐谋勋,15305808705,0,否,,,621,1022,3030,ZS-DH-NZ-1.domain,以太网,附近道路及周边商家,1,2010-06-21,,CT_zj_5809920032,网件AC22（虚）,,正常热点,普陀沈家门渔市大街机房东墙室外,,,
CT_zj_580b9900702,800299154,普陀沈家门金洋机房南墙室外, 其他,普陀沈家门金洋机房南墙,浙江,舟山市,普陀县,普陀分公司,122.2847,29.94455,工程局,183.152.192.2-183.152.207.254,光纤,A,工程局SY,乐谋勋,15305808705,0,否,,,648,1022,3030,ZS-DH-NZ-1.domain,以太网,附近道路及周边商家,1,2010-06-21,,CT_zj_5809920033,网件AC22（虚）,,正常热点,普陀沈家门金洋机房南墙室外,,,
CT_zj_580b0500726,800205160,普陀虾峙中学PHS, 学校,普陀虾峙镇虾峙中学,浙江,舟山市,普陀县,普陀分公司,122.23471,29.76138,工程局,183.152.192.2-183.152.207.254,光纤,D,工程局FZ,乐谋勋,15305808705,0,否,,,677,1022,3027,ZS-DH-NZ-1.domain,以太网,虾峙中学一楼会议室及教师寝室楼,1,2010-07-24,,CT_zj_5800520001,网件AC22（虚）,,正常热点,普陀虾峙中学PHS,,,
CT_zj_580b0400732,800204166,普陀桃花客运站, 码头,普陀桃花客运站,浙江,舟山市,普陀县,普陀分公司,122.28335,29.84386,工程局,183.152.192.2-183.152.207.254,光纤,D,工程局SY,乐谋勋,15305808705,0,否,,,203,1002,3025,ZS-DH-NZ-1.domain,以太网,客运大厅,2,2010-07-24,,CT_zj_5800420002,贝尔AC41（虚）,,正常热点,普陀桃花客运站,,,
CT_zj_580b9900734,800216168,普陀桃花桃源路P11电信杆, 其他,普陀桃花桃源路P11#水泥杆,浙江,舟山市,普陀县,普陀分公司,122.2755,29.83567,工程局,183.152.192.2-183.152.207.254,光纤,D,工程局SY,乐谋勋,15305808705,0,否,,,663,1022,3025,ZS-DH-NZ-1.domain,以太网,道路及周边商店,1,2010-07-24,,CT_zj_5809920009,网件AC22（虚）,,正常热点,普陀桃花桃源路P11电信杆,,,
CT_zj_580b9900735,800216169,普陀桃花桃源路P15电信杆, 其他,普陀桃花桃源路P15#水泥杆,浙江,舟山市,普陀县,普陀分公司,122.27451,29.83498,工程局,183.152.192.2-183.152.207.254,光纤,D,工程局SY,乐谋勋,15305808705,0,否,,,664,1022,3025,ZS-DH-NZ-1.domain,以太网,道路及周边商店,1,2010-07-24,,CT_zj_5809920010,网件AC22（虚）,,正常热点,普陀桃花桃源路P15电信杆,,,
CT_zj_580b0700736,800216170,普陀桃花塔湾农家乐附近交接杆1, 休闲度假区,普陀桃花岛塔湾龙家乐附近水泥杆1#,浙江,舟山市,普陀县,普陀分公司,122.29013,29.81312,工程局,183.152.192.2-183.152.207.254,光纤,D,工程局SY,乐谋勋,15305808705,0,否,,,214,1002,3025,ZS-DH-NZ-1.domain,以太网,附近农家乐,1,2010-07-24,,CT_zj_5800720004,贝尔AC41（虚）,,正常热点,普陀桃花塔湾农家乐附近交接杆1,,,
CT_zj_580b0700737,800216171,普陀桃花塔湾农家乐附近交接杆2, 休闲度假区,普陀桃花岛塔湾龙家乐附近水泥杆2#,浙江,舟山市,普陀县,普陀分公司,122.2895,29.81326,工程局,183.152.192.2-183.152.207.254,光纤,D,工程局SY,乐谋勋,15305808705,0,否,,,215,1002,3025,ZS-DH-NZ-1.domain,以太网,附近农家乐,1,2010-07-24,,CT_zj_5800720016,贝尔AC41（虚）,,正常热点,普陀桃花塔湾农家乐附近交接杆2,,,
CT_zj_580b0500738,800205172,普陀朱家尖佛学院参学会馆客房D, 学校,舟山市普陀朱家尖乌石塘路,浙江,舟山市,普陀县,普陀分公司,122.390127,29.928119,工程局,183.152.192.2-183.152.207.254,光纤,C,浙贝,乐谋勋,15305808705,0,是,,,688,1022,3027,ZS-DH-NZ-1.domain,以太网,参学会馆（客房D),1,2010-07-24,,CT_zj_5800520003,网件AC22（虚）,普陀朱家尖佛学院,正常热点,普陀朱家尖佛学院参学会馆客房D,,,
CT_zj_580b0500739,800205173,普陀朱家尖佛学院参学会馆大堂, 学校,舟山市普陀朱家尖乌石塘路,浙江,舟山市,普陀县,普陀分公司,122.390597,29.928954,工程局,183.152.192.2-183.152.207.254,光纤,C,浙贝,乐谋勋,15305808705,0,是,,,689,1022,3027,ZS-DH-NZ-1.domain,以太网,参学会馆大堂、地下室,1,2010-07-24,,CT_zj_5800520004,网件AC22（虚）,普陀朱家尖佛学院,正常热点,普陀朱家尖佛学院参学会馆大堂,,,
CT_zj_580b1200740,800216174,普陀朱家尖大洞岙CDMA, 政府机关等事业单位,普陀朱家尖大洞岙C网基站外墙,浙江,舟山市,普陀县,普陀分公司,122.38879,29.91975,工程局,183.152.192.2-183.152.207.254,光纤,C,工程局FZ,乐谋勋,15305808705,0,否,,,684,1022,3026,ZS-DH-NZ-1.domain,以太网,镇政府4F大会议室,1,2010-07-24,,CT_zj_5801220017,网件AC22（虚）,,正常热点,普陀朱家尖大洞岙CDMA,,,
CT_zj_580a0301203,80012023,定海港务码头旅游集散中心, 长途汽车站,定海港客运码头（旅游集散中心）,浙江,舟山市,定海县,定海分公司,122.10131,30.00926,金州,183.152.192.2-183.152.207.254,光纤,B,国人,顾磊,15305809609,0,是,,,51,1001,3024,ZS-DH-NZ-1.domain,以太网,候船、车大厅,1,,-,CT_zj_5800310003,贝尔AC38（虚）,,正常热点,定海港务码头旅游集散中心,,,
CT_zj_580a9900036,80012019,定海文化广场PHS, 其他,定海文化广场(室外）,浙江,舟山市,定海县,定海分公司,122.10329,30.01704,金州,183.152.192.2-183.152.207.254,光纤,B,工程局FZ,顾磊,15305809609,0,否,,,3201,1439,3024,ZS-DH-NZ-1.domain,以太网,定海文化广场(室外）,1,2008-04-17,,CT_zj_5809910009,,,正常热点,定海文化广场PHS,,,
CT_zj_580b0600043,80022020,普陀普陀山中信普陀山大酒店, 宾馆酒店,普陀山金沙路22号,浙江,舟山市,普陀县,普陀分公司,122.38572,29.979849,工程局,183.152.192.2-183.152.207.254,光纤,D,国人,乐谋勋,15305808705,0,是,,,539,1022,3025,ZS-DH-NZ-1.domain,以太网,大堂、会议室等,2,2009-12-31,,CT_zj_5800620039,网件AC22（虚）,,正常热点,普陀普陀山中信普陀山大酒店,,,
CT_zj_580a0400139,80012029,定海马岙三江码头1号候船厅, 码头,定海三江码头,浙江,舟山市,定海县,定海分公司,122.11385,30.14182,金州,183.152.192.2-183.152.207.254,光纤,C,工程局FZ,顾磊,15305809609,0,是,,,20,1021,3027,ZS-DH-NZ-1.domain,以太网,候船大厅,2,2009-02-09,,CT_zj_5800410002,网件AC6（虚）,,正常热点,定海马岙三江码头1号候船厅,,,
CT_zj_580b0600622,800206133,普陀朱家尖白玉兰大酒店, 宾馆酒店,朱家尖福兴路30号对面,浙江,舟山市,普陀县,普陀分公司,122.388154,29.917412,工程局,183.152.192.2-183.152.207.254,光纤,B,依网,乐谋勋,15305808705,0,是,,,680,1022,3025,ZS-DH-NZ-1.domain,以太网,1~6F,6,2010-06-12,,CT_zj_5800620005,网件AC22（虚）,,正常热点,普陀朱家尖白玉兰大酒店,,,
CT_zj_580b0700641,800299134,普陀普陀山百步沙停车场北侧PHS, 休闲度假区,普陀普陀山百步沙停车场北侧转角杆,浙江,舟山市,普陀县,普陀分公司,122.3853,29.98754,工程局,183.152.192.2-183.152.207.254,光纤,D,工程局SY,乐谋勋,15305808705,0,否,,,687,1002,3029,ZS-DH-NZ-1.domain,以太网,道路,1,2010-06-12,,CT_zj_5800720013,贝尔ac47（虚）,,正常热点,普陀普陀山百步沙停车场北侧PHS,,,
CT_zj_580b1600682,800216142,普陀展茅电信合作营业厅, 电信自有,普陀展茅电信合作营业厅,浙江,舟山市,普陀县,普陀分公司,122.2809,30.0283,工程局,183.152.192.2-183.152.207.254,光纤,C,工程局FZ,乐谋勋,15305808705,0,否,,,519,1022,3034,ZS-DH-NZ-1.domain,以太网,展矛电信合作营业大厅,1,2010-06-18,,CT_zj_5801620017,网件AC22（虚）,,正常热点,普陀展茅电信合作营业厅,,,
CT_zj_580b9900685,800299145,普陀六横台门海洲滨海花园内16号PHS, 其他,普陀六横台门海洲滨海花园内16#楼边PHS基站,浙江,舟山市,普陀县,普陀分公司,122.19597,29.70347,工程局,183.152.192.2-183.152.207.254,光纤,D,工程局FZ,乐谋勋,15305808705,0,否,,,528,1022,3026,ZS-DH-NZ-1.domain,以太网,16#楼基站附近区域,1,2010-06-30,,CT_zj_5809920025,网件AC22（虚）,,正常热点,普陀六横台门海洲滨海花园内16号PHS,,,
CT_zj_580b9900686,800299146,普陀六横台门钟声楼PHS, 其他,普陀六横台门钟声楼顶小灵通基站,浙江,舟山市,普陀县,普陀分公司,122.1954,29.702,工程局,183.152.192.2-183.152.207.254,光纤,D,工程局FZ,乐谋勋,15305808705,0,否,,,580,1022,3026,ZS-DH-NZ-1.domain,以太网,钟声楼附近街道,1,2010-06-30,,CT_zj_5809920026,网件AC22（虚）,,正常热点,普陀六横台门钟声楼PHS,,,
CT_zj_580b9900687,800299147,普陀六横台门文化站PHS, 其他,普陀六横台门文化站前小灵通基站,浙江,舟山市,普陀县,普陀分公司,122.19375,29.69948,工程局,183.152.192.2-183.152.207.254,光纤,D,工程局FZ,乐谋勋,15305808705,0,否,,,532,1022,3026,ZS-DH-NZ-1.domain,以太网,文化站附近街道,1,2010-06-30,,CT_zj_5809920027,网件AC22（虚）,,正常热点,普陀六横台门文化站PHS,,,
CT_zj_580b9900689,800299149,普陀六横台门人民北路渔政站PHS, 其他,普陀六横台门人民北路渔政站楼顶小灵通基站,浙江,舟山市,普陀县,普陀分公司,122.19636,29.70014,工程局,183.152.192.2-183.152.207.254,光纤,D,工程局FZ,乐谋勋,15305808705,0,否,,,800,1022,3026,ZS-DH-NZ-1.domain,以太网,人民北路渔政局附近街道,1,2010-06-30,,CT_zj_5809920029,网件AC22（虚）,,正常热点,普陀六横台门人民北路渔政站PHS,,,
CT_zj_580b0400690,800299150,普陀六横台门客运公司老大楼PHS, 码头,普陀六横台门客运公司老大楼楼顶小灵通基站,浙江,舟山市,普陀县,普陀分公司,122.1991,29.69818,工程局,183.152.192.2-183.152.207.254,光纤,D,工程局FZ,乐谋勋,15305808705,0,否,,,531,1022,3026,ZS-DH-NZ-1.domain,以太网,老客运码头附近街道及码头,2,2010-06-30,,CT_zj_5800420006,网件AC22（虚）,,正常热点,普陀六横台门客运公司老大楼PHS,,,
CT_zj_580b9900692,800299152,普陀六横蛟头建国旅社对面PHS, 其他,普陀六横蛟头建国旅社对面杆子小灵通基站,浙江,舟山市,普陀县,普陀分公司,122.11613,29.74516,工程局,183.152.192.2-183.152.207.254,光纤,D,工程局FZ,乐谋勋,15305808705,0,否,,,523,1022,3024,ZS-DH-NZ-1.domain,以太网,建国旅社附近街道,1,2010-06-30,,CT_zj_5809920031,网件AC22（虚）,,正常热点,普陀六横蛟头建国旅社对面PHS,,,
CT_zj_580b0700742,800206176,普陀普陀山百步阁PHS, 休闲度假区,普陀普陀山百步阁楼顶,浙江,舟山市,普陀县,普陀分公司,122.38597,29.98232,工程局,183.152.192.2-183.152.207.254,光纤,D,工程局SY,乐谋勋,15305808705,0,否,,,644,1002,3029,ZS-DH-NZ-1.domain,以太网,附近风景区,2,2010-07-24,,CT_zj_5800720005,贝尔ac47（虚）,,正常热点,普陀普陀山百步阁PHS,,,
CT_zj_580b9900743,800208177,普陀沈家门兴建路332号室外, 其他,普陀沈家门兴建路332号（国珍养生馆）,浙江,舟山市,普陀县,普陀分公司,122.28764,29.94443,工程局,183.152.192.2-183.152.207.254,光纤,B,工程局SY,乐谋勋,15305808705,0,否,,,619,1022,3029,ZS-DH-NZ-1.domain,以太网,附近道路及商家,1,2010-07-24,,CT_zj_5809920004,网件AC22（虚）,,正常热点,普陀沈家门兴建路332号室外,,,
CT_zj_580b0600744,800206178,普陀沈家门海浪花假日宾馆, 宾馆酒店,普陀区沈家门东海中路732号,浙江,舟山市,普陀县,普陀分公司,122.28061,29.94749,工程局,183.152.192.2-183.152.207.254,光纤,A,浙贝,乐谋勋,15305808705,0,是,,,588,1022,3024,ZS-DH-NZ-1.domain,以太网,1~8F,2,2010-07-24,,CT_zj_5800620009,网件AC22（虚）,,正常热点,普陀沈家门海浪花假日宾馆,,,
CT_zj_580b0800761,800208179,普陀东港真爱年华, 休闲娱乐吧,普陀东港真爱年华,浙江,舟山市,普陀县,普陀分公司,122.31392,29.97126,工程局,183.152.192.2-183.152.207.254,光纤,B,京信,乐谋勋,15305808705,0,是,,,510,1022,3024,ZS-DH-NZ-1.domain,以太网,1~5F,2,2010-07-24,,CT_zj_5800820004,网件AC22（虚）,,正常热点,普陀东港真爱年华,,,
CT_zj_580b1600781,800216180,普陀朱家尖庆丰路电信合作营业厅, 电信自有,普陀朱家尖庆丰路电信合作营业厅,浙江,舟山市,普陀县,普陀分公司,122.3837,29.91704,工程局,183.152.192.2-183.152.207.254,光纤,A,工程局FZ,乐谋勋,15305808705,0,否,,,686,1022,3027,ZS-DH-NZ-1.domain,以太网,庆丰路41号合作营业厅大厅及附近路面,1,2010-07-27,,CT_zj_5801620030,网件AC22（虚）,,正常热点,普陀朱家尖庆丰路电信合作营业厅,,,
CT_zj_580b1400601,800214116,普陀浦西陶瓷建材市场, 聚类市场,普陀浦西陶瓷建材市场,浙江,舟山市,普陀县,普陀分公司,122.23593,29.97321,工程局,183.152.192.2-183.152.207.254,光纤,C,依网,乐谋勋,15305808705,0,是,,,584,1022,3024,ZS-DH-NZ-1.domain,以太网,1~4F,4,2010-05-14,,CT_zj_5801420001,网件AC22（虚）,,正常热点,普陀浦西陶瓷建材市场,,,
CT_zj_580b0700602,800299117,普陀普陀山中山饭店西面电信杆, 休闲度假区,普陀普陀山中山饭店西面树下12米杆,浙江,舟山市,普陀县,普陀分公司,122.38721,30.00237,工程局,183.152.192.2-183.152.207.254,光纤,C,工程局SY,乐谋勋,15305808705,0,否,,,761,1002,3030,ZS-DH-NZ-1.domain,以太网,停车场及周边商家,1,2010-05-14,,CT_zj_5800720023,贝尔ac47（虚）,,正常热点,普陀普陀山中山饭店西面电信杆,,,
CT_zj_580b0700603,800299118,普陀普陀山瑞景大酒店PHS, 休闲度假区,普陀普陀山海岛之星假日酒店楼顶,浙江,舟山市,普陀县,普陀分公司,122.37475,29.9779,工程局,183.152.192.2-183.152.207.254,光纤,D,工程局SY,乐谋勋,15305808705,0,否,,,618,1002,3030,ZS-DH-NZ-1.domain,以太网,附近道路,1,2010-05-14,,CT_zj_5800720018,贝尔ac47（虚）,,正常热点,普陀普陀山瑞景大酒店PHS,,,
CT_zj_580b9900604,800299119,普陀普陀山六桥路52号PHS, 其他,普陀普陀山六桥路51号海军楼顶,浙江,舟山市,普陀县,普陀分公司,122.36972,29.98323,工程局,183.152.192.2-183.152.207.254,光纤,D,工程局SY,乐谋勋,15305808705,0,否,,,579,1022,3031,ZS-DH-NZ-1.domain,以太网,海军操场,1,2010-05-14,,CT_zj_5809920005,网件AC22（虚）,,正常热点,普陀普陀山六桥路52号PHS,,,
CT_zj_580b0700605,800299120,普陀普陀山合兴索道公司停车场边电信杆, 休闲度假区,普陀普陀山合兴索道公司停车场边老杆子,浙江,舟山市,普陀县,普陀分公司,122.393361,30.02132,工程局,183.152.192.2-183.152.207.254,光纤,D,工程局SY,乐谋勋,15305808705,0,否,,,679,1002,3030,ZS-DH-NZ-1.domain,以太网,停车场,2,2010-05-14,,CT_zj_5800720017,贝尔ac47（虚）,,正常热点,普陀普陀山合兴索道公司停车场边电信杆,,,
CT_zj_580b0700611,800299126,普陀普陀山合兴马腰绞西龙竺路P005电信杆, 休闲度假区,普陀普陀山合兴马腰绞西边龙竺路P005杆,浙江,舟山市,普陀县,普陀分公司,122.3982,30.02443,工程局,183.152.192.2-183.152.207.254,光纤,D,工程局SY,乐谋勋,15305808705,0,否,,,681,1002,3030,ZS-DH-NZ-1.domain,以太网,附近道路,2,2010-05-14,,CT_zj_5800720024,贝尔ac47（虚）,,正常热点,普陀普陀山合兴马腰绞西龙竺路P005电信杆,,,
CT_zj_580b9900614,800299129,普陀普陀山西山二区57号海军蓝房子PHS, 其他,普陀普陀山西山二区57号海军蓝房子顶,浙江,舟山市,普陀县,普陀分公司,122.37189,29.98353,工程局,183.152.192.2-183.152.207.254,光纤,D,工程局SY,乐谋勋,15305808705,0,否,,,619,1002,3029,ZS-DH-NZ-1.domain,以太网,附近居民区,3,2010-05-14,,CT_zj_5809920015,贝尔ac47（虚）,,正常热点,普陀普陀山西山二区57号海军蓝房子PHS,,,
CT_zj_580b1600784,800216183,普陀沈家门鲁家峙电信合作营业厅, 电信自有,普陀鲁家峙合作营业厅,浙江,舟山市,普陀县,普陀分公司,122.29169,29.93736,工程局,183.152.192.2-183.152.207.254,光纤,A,工程局SY,乐谋勋,15305808705,0,否,,,486,1002,3024,ZS-DH-NZ-1.domain,以太网,营业厅内,2,2010-07-27,,CT_zj_5801620033,贝尔AC41（虚）,,正常热点,普陀沈家门鲁家峙电信合作营业厅,,,
CT_zj_580b1500786,800214185,普陀沈家门国际水产城, 大型购物广场,普陀沈家门国际水产城,浙江,舟山市,普陀县,普陀分公司,122.27928,29.94361,工程局,183.152.192.2-183.152.207.254,光纤,B,国人,乐谋勋,15305808705,0,是,,,622,1022,3030,ZS-DH-NZ-1.domain,以太网,1F,3,2010-07-27,,CT_zj_5801420002,网件AC22（虚）,,正常热点,普陀沈家门国际水产城,,,
CT_zj_580a1400801,800114099,定海临城富丽岛建材城南, 聚类市场,定海临城富丽岛建材城南,浙江,舟山市,定海县,定海分公司,122.22676,29.98732,金州,183.152.192.2-183.152.207.254,光纤,C,国人,张师傅,13105808233,0,是,,,69,1021,3024,ZS-DH-NZ-1.domain,以太网,全覆盖,6,2010-07-28,PN:369,CT_zj_5801400001,网件AC6（虚）,定海临城富丽岛建材城,正常热点,定海临城富丽岛建材城南,,,
CT_zj_580a0800861,800108102,定海天上人间, 休闲娱乐吧,定海解放东路天上人间,浙江,舟山市,定海县,定海分公司,122.10494,30.01835,金州,183.152.192.2-183.152.207.254,光纤,C,国人,顾磊,15305809609,0,是,,,3,1021,3024,ZS-DH-NZ-1.domain,以太网,3~6F,4,2010-07-29,,CT_zj_5800810001,网件AC6（虚）,,正常热点,定海天上人间,,,
CT_zj_580a0600881,800106103,定海广盛大酒店, 宾馆酒店,定海广盛大酒店,浙江,舟山市,定海县,定海分公司,122.10304,30.01585,金州,183.152.192.2-183.152.207.254,光纤,C,国人,邓师傅,18967209003,0,是,,,4,1021,3024,ZS-DH-NZ-1.domain,以太网,3~5F,2,2010-07-29,客户经理：郑瑛 15305809880,CT_zj_5800610004,网件AC6（虚）,,正常热点,定海广盛大酒店,,,
CT_zj_580a0600902,800106104,定海环城南路新洲宾馆, 宾馆酒店,定海新洲宾馆,浙江,舟山市,定海县,定海分公司,122.09512,30.01303,金州,183.152.192.2-183.152.207.254,光纤,C,国人,顾磊,15305809609,0,是,,,8,1021,3024,ZS-DH-NZ-1.domain,以太网,1~3F,3,2010-08-02,,CT_zj_5800610006,网件AC6（虚）,,正常热点,定海环城南路新洲宾馆,,,
CT_zj_580a0600903,800106105,定海佰达商务宾馆, 宾馆酒店,定海佰达商务宾馆,浙江,舟山市,定海县,定海分公司,122.09738,30.01241,金州,183.152.192.2-183.152.207.254,光纤,C,国人,顾磊,15305809609,0,是,,,9,1021,3024,ZS-DH-NZ-1.domain,以太网,1~6F,3,2010-08-02,,CT_zj_5800610007,网件AC6（虚）,,正常热点,定海佰达商务宾馆,,,
CT_zj_580a0600904,800106106,定海景海阁宾馆, 宾馆酒店,定海景海阁宾馆,浙江,舟山市,定海县,定海分公司,122.09834,30.01293,金州,183.152.192.2-183.152.207.254,光纤,B,国人,顾磊,15305809609,0,是,,,10,1021,3027,ZS-DH-NZ-1.domain,以太网,全覆盖,4,2010-08-02,,CT_zj_5800610008,网件AC6（虚）,,正常热点,定海景海阁宾馆,,,
CT_zj_580d1200921,800312048,岱山高亭县府大楼, 政府机关等事业单位,岱山县府大楼,浙江,舟山市,岱山县,岱山分公司,122.22137,30.2669,金州,183.152.192.2-183.152.207.254,光纤,A,浙贝,魏幸淑,15305807947,0,是,,,1051,1023,3024,ZS-DH-NZ-1.domain,以太网,全覆盖,11,2010-08-05,,CT_zj_5801230001,网件AC6（虚）,,正常热点,岱山高亭县府大楼,,,
CT_zj_580a1400950,800114109,定海临城富丽岛建材城北, 聚类市场,定海临城富丽岛建材城北,浙江,舟山市,定海县,定海分公司,122.22721,29.98839,金州,183.152.192.2-183.152.207.254,光纤,C,国人,张师傅,13105808233,0,是,,,70,1021,3024,ZS-DH-NZ-1.domain,以太网,全覆盖,6,2010-08-31,PN：369,CT_zj_5801400003,网件AC6（虚）,定海临城富丽岛建材城,正常热点,定海临城富丽岛建材城北,,,
CT_zj_580b1600521,800216099,普陀桃花电信营业厅, 电信自有,普陀桃花电信营业厅,浙江,舟山市,普陀县,普陀分公司,122.27686,29.83226,工程局,183.152.192.2-183.152.207.254,光纤,D,工程局SY,营业厅,6061233,0,否,,,665,1022,3025,ZS-DH-NZ-1.domain,以太网,营业厅及对面宿舍,1,2010-05-11,,CT_zj_5801620004,网件AC22（虚）,,正常热点,普陀桃花电信营业厅,,,
CT_zj_580b1600522,800216100,普陀蚂蚁岛电信机房PHS, 电信自有,普陀蚂蚁电信机房顶小灵通基站,浙江,舟山市,普陀县,普陀分公司,122.26453,29.86637,工程局,183.152.192.2-183.152.207.254,光纤,D,工程局SY,乐谋勋,15305808705,0,否,,,673,1022,3026,ZS-DH-NZ-1.domain,以太网,覆盖周边居民区及3幢别墅式宾馆,1,2010-05-11,,CT_zj_5809920016,网件AC22（虚）,,正常热点,普陀蚂蚁岛电信机房PHS,,,
CT_zj_580a1000821,80019054,定海临城体育馆副馆, 体育场馆,定海临城体育馆(副馆）,浙江,舟山市,定海县,定海分公司,122.20413,29.9834,金州,183.152.192.2-183.152.207.254,光纤,C,国人,顾磊,15305809609,0,是,,,5,1021,3024,ZS-DH-NZ-1.domain,以太网,副馆全覆盖,5,2010-07-29,,CT_zj_5801010001,网件AC6（虚）,定海临城体育馆,正常热点,定海临城体育馆副馆,,,
CT_zj_580a0600841,800106101,定海芙蓉洲路新华宾馆, 宾馆酒店,定海新华宾馆,浙江,舟山市,定海县,定海分公司,122.10589,30.01869,金州,183.152.192.2-183.152.207.254,光纤,C,国人,顾磊,15305809609,0,否,,,6,1021,3024,ZS-DH-NZ-1.domain,以太网,5~7F,3,2010-07-29,,CT_zj_5800610003,网件AC6（虚）,,正常热点,定海芙蓉洲路新华宾馆,,,
CT_zj_580a1200906,800112108,定海舟山市社保局, 政府机关等事业单位,定海舟山市社保局,浙江,舟山市,定海县,定海分公司,122.09364,30.01726,金州,183.152.192.2-183.152.207.254,光纤,C,国人,顾磊,15305809609,0,是,,,100,1041,3024,ZS-DH-NZ-1.domain,以太网,2~7F,6,2010-08-02,,CT_zj_5801210008,华三AC定海76(主),,正常热点,定海舟山市社保局,,,
CT_zj_580a1200983,800112112,定海区政府宣传楼顶PHS, 政府机关等事业单位,定海区政府宣传楼顶,浙江,舟山市,定海县,定海分公司,122.10173,30.022,金州,183.152.192.2-183.152.207.254,光纤,C,工程局FZ,顾磊,15305809609,0,否,,,229,1001,3026,ZS-DH-NZ-1.domain,以太网,区政府大院子,3,2010-09-06,,CT_zj_5801210010,贝尔ac44（虚）,定海区政府,正常热点,定海区政府宣传楼顶PHS,,,
CT_zj_580a9901001,800199114,定海临城公共自行车点海运学院站点, 其他,定海新城公共自行车点航海学校站点,浙江,舟山市,定海县,定海分公司,122.18231,29.99174,金州,183.152.192.2-183.152.207.254,光纤,C,工程局FZ,王经理,13706803815,0,否,,,289,1021,3024,ZS-DH-NZ-1.domain,以太网,航海学校站点周边街道区域,1,2010-09-29,,CT_zj_5809910001,网件AC6（虚）,,正常热点,定海临城公共自行车点海运学院站点,,,
CT_zj_580a9901002,800199115,定海临城公共自行车点公交总站站点, 其他,定海新城公共自行车点新城公交总站站点,浙江,舟山市,定海县,定海分公司,122.19382,29.98811,金州,183.152.192.2-183.152.207.254,光纤,C,工程局FZ,王经理,13706803815,0,否,,,290,1021,3024,ZS-DH-NZ-1.domain,以太网,公交总站站点周边街道区域,1,2010-09-29,,CT_zj_5809910002,网件AC6（虚）,,正常热点,定海临城公共自行车点公交总站站点,,,
CT_zj_580a1100401,800111092,定海临城建设大厦A座, 商务楼,定海临城建设大厦A座,浙江,舟山市,定海县,定海分公司,122.20022,29.99275,金州,183.152.192.2-183.152.207.254,光纤,C,浙贝,陈经理,13675805990,0,是,,,57,1021,3024,ZS-DH-NZ-1.domain,以太网,15F-19F,12,2010-05-11,,CT_zj_5801110001,网件AC6（虚）,定海临城建设大厦,正常热点,定海临城建设大厦A座,,,
CT_zj_580a1200402,800112093,定海区人民检察院2#楼, 政府机关等事业单位,定海洋岙岭,浙江,舟山市,定海县,定海分公司,122.13753,30.01819,金州,183.152.192.2-183.152.207.254,光纤,B,浙贝,业主,13656822688,0,是,,,3,1001,3024,ZS-DH-NZ-1.domain,以太网,全覆盖,7,2010-05-11,,CT_zj_5801210002,贝尔AC38（虚）,,正常热点,定海区人民检察院2#楼,,,
CT_zj_580a0300403,800103094,定海临城公交总站, 长途汽车站,定海临城公交总站,浙江,舟山市,定海县,定海分公司,122.19397,29.98763,金州,183.152.192.2-183.152.207.254,光纤,A,浙贝,王师傅,13957233225,0,是,,,53,1021,3027,ZS-DH-NZ-1.domain,以太网,全覆盖,3,2010-05-11,,CT_zj_5800310001,网件AC6（虚）,,正常热点,定海临城公交总站,,,
CT_zj_580a1200404,800112095,定海临城环卫大楼, 政府机关等事业单位,定海临城环卫大楼,浙江,舟山市,定海县,定海分公司,122.19196,29.98432,金州,183.152.192.2-183.152.207.254,光纤,C,浙贝,顾磊,15305809609,0,是,,,164,1041,3028,ZS-DH-NZ-1.domain,以太网,全覆盖,6,2010-05-11,,CT_zj_5801210003,华三AC定海76(主),,正常热点,定海临城环卫大楼,,,
CT_zj_580b9900568,800216108,普陀沈家门华侨商场门口公话亭, 其他,普陀沈家门新街电话亭3（华侨商场门口）,浙江,舟山市,普陀县,普陀分公司,122.29809,29.94686,工程局,183.152.192.2-183.152.207.254,光纤,A,京信,乐谋勋,15305808705,0,否,,,657,1022,3032,ZS-DH-NZ-1.domain,以太网,新街街道,1,2010-05-11,,CT_zj_5809920038,网件AC22（虚）,,正常热点,普陀沈家门华侨商场门口公话亭,,,
CT_zj_580b1600569,800216109,普陀展茅电信营业厅, 电信自有,普陀展茅电信营业厅,浙江,舟山市,普陀县,普陀分公司,122.28167,30.02513,工程局,183.152.192.2-183.152.207.254,光纤,C,工程局FZ,营业厅,6023333,0,否,,,516,1022,3034,ZS-DH-NZ-1.domain,以太网,展矛电信营业大厅,1,2010-05-11,,CT_zj_5801620013,网件AC22（虚）,,正常热点,普陀展茅电信营业厅,,,
CT_zj_580b1600570,800216110,普陀展茅螺门电信合作营业厅, 电信自有,普陀螺门电信合作营业厅,浙江,舟山市,普陀县,普陀分公司,122.27847,30.0602,工程局,183.152.192.2-183.152.207.254,光纤,C,工程局FZ,乐谋勋,15305808705,0,否,,,514,1022,3034,ZS-DH-NZ-1.domain,以太网,螺门电信营业大厅,2,2010-05-11,,CT_zj_5801620014,网件AC22（虚）,,正常热点,普陀展茅螺门电信合作营业厅,,,
CT_zj_580b1600571,800216111,普陀虾峙电信营业厅, 电信自有,普陀虾峙电信营业厅,浙江,舟山市,普陀县,普陀分公司,122.23562,29.75739,工程局,183.152.192.2-183.152.207.254,光纤,D,工程局FZ,营业厅,6057335,0,否,,,676,1022,3027,ZS-DH-NZ-1.domain,以太网,虾峙电信营业大厅,1,2010-05-11,,CT_zj_5801620015,网件AC22（虚）,,正常热点,普陀虾峙电信营业厅,,,
CT_zj_580b1600574,800216114,普陀浦西电信营业厅, 电信自有,普陀浦西营业厅,浙江,舟山市,普陀县,普陀分公司,122.24437,29.97591,工程局,183.152.192.2-183.152.207.254,光纤,A,工程局FZ,营业厅,3093352,0,否,,,583,1022,3024,ZS-DH-NZ-1.domain,以太网,浦西营业大厅,1,2010-05-11,,CT_zj_5801620016,网件AC22（虚）,,正常热点,普陀浦西电信营业厅,,,
CT_zj_580b9900581,800299115,普陀沈家门自来水公司宿舍楼, 其他,普陀沈家门自来水公司宿舍楼,浙江,舟山市,普陀县,普陀分公司,122.29053,29.94747,工程局,183.152.192.2-183.152.207.254,光纤,C,工程局SY,乐谋勋,15305808705,0,否,,,596,1022,3026,ZS-DH-NZ-1.domain,以太网,3F204室,1,2010-05-11,,CT_zj_5809920001,网件AC22（虚）,,正常热点,普陀沈家门自来水公司宿舍楼,,,
CT_zj_580b0700642,800299135,普陀普陀山往南海观音小路8926电信杆, 休闲度假区,普陀普陀山往南海观音路上89二六杆潮音洞,浙江,舟山市,普陀县,普陀分公司,122.38895,29.97872,工程局,183.152.192.2-183.152.207.254,光纤,D,工程局SY,乐谋勋,15305808705,0,否,,,674,1002,3029,ZS-DH-NZ-1.domain,以太网,道路,2,2010-06-12,,CT_zj_5800720020,贝尔ac47（虚）,,正常热点,普陀普陀山往南海观音小路8926电信杆,,,
CT_zj_580b1200644,800299137,普陀普陀山公安局后电信杆, 政府机关等事业单位,普陀普陀山公安局后坡线杆,浙江,舟山市,普陀县,普陀分公司,122.38548,29.98271,工程局,183.152.192.2-183.152.207.254,光纤,D,工程局SY,乐谋勋,15305808705,0,否,,,680,1002,3029,ZS-DH-NZ-1.domain,以太网,公安局,1,2010-06-12,,CT_zj_5801220016,贝尔ac47（虚）,,正常热点,普陀普陀山公安局后电信杆,,,
CT_zj_580b0600661,800206138,普陀东港昌正春天酒店, 宾馆酒店,普陀区东港海华路592号,浙江,舟山市,普陀县,普陀分公司,122.31332,29.96966,工程局,183.152.192.2-183.152.207.254,光纤,B,浙贝,乐谋勋,15305808705,0,是,,,509,1022,3029,ZS-DH-NZ-1.domain,以太网,2F-6F,5,2010-06-13,,CT_zj_5800620006,网件AC22（虚）,,正常热点,普陀东港昌正春天酒店,,,
CT_zj_580b0700663,800299140,普陀普陀山龙湾中信普陀大酒店PHS, 休闲度假区,普陀普陀山龙湾中信普陀大酒店顶,浙江,舟山市,普陀县,普陀分公司,122.38555,29.98038,工程局,183.152.192.2-183.152.207.254,光纤,D,工程局SY,乐谋勋,15305808705,0,否,,,31,1002,3029,ZS-DH-NZ-1.domain,以太网,道路,1,2010-06-13,,CT_zj_5800720026,贝尔ac47（虚）,,正常热点,普陀普陀山龙湾中信普陀大酒店PHS,,,
CT_zj_580b0400723,800204157,普陀朱家尖蜈蚣峙码头停车场室外, 码头,普陀朱家尖蜈蚣峙码头室外停车场,浙江,舟山市,普陀县,普陀分公司,122.367845,29.953533,工程局,183.152.192.2-183.152.207.254,光纤,C,工程局SY,乐谋勋,15305808705,0,否,,,1059,1042,3033,ZS-DH-NZ-1.domain,以太网,室外停车场、侯船厅,3,2010-07-24,,CT_zj_5800420001,华三AC普陀78(主),普陀朱家尖蜈蚣峙码头,正常热点,普陀朱家尖蜈蚣峙码头停车场室外,,,
CT_zj_580a9901133,800112137,定海青少年宫办公楼, 其他,定海青少年宫办公楼5F6F翰林写作,浙江,舟山市,定海县,定海分公司,122.10339,30.03334,金州,183.152.192.2-183.152.207.254,光纤,C,国人,客户经理何阳,809171,0,否,,,88,1021,3024,ZS-DH-NZ-1.domain,以太网,定海青少年宫办公楼5F6F翰林写作,6,2010-10-25,,CT_zj_5800510010,网件AC6（虚）,,正常热点,定海青少年宫办公楼,,,
CT_zj_580c1201226,800412062,嵊泗菜园宣传部屋前的电线杆上, 政府机关等事业单位,嵊泗菜园宣传部屋前的电线杆上,浙江,舟山市,嵊泗县,嵊泗分公司,122.44644,30.72811,金州,183.152.192.2-183.152.207.254,光纤,B,工程局FZ,阮卫其,13395801152,0,否,,,1559,1024,3025,ZS-DH-NZ-1.domain,以太网,宣传部办公楼,1,2010-11-09,,CT_zj_5801240006,网件AC22（虚）,,正常热点,嵊泗菜园宣传部屋前的电线杆上,,,
CT_zj_580c1201227,800412063,嵊泗菜园组织部屋旁的电线杆上, 政府机关等事业单位,嵊泗菜园组织部屋旁的电线杆上,浙江,舟山市,嵊泗县,嵊泗分公司,122.44678,30.7284,金州,183.152.192.2-183.152.207.254,光纤,C,工程局FZ,阮卫其,13395801152,0,否,,,1564,1024,3025,ZS-DH-NZ-1.domain,以太网,宣传部办公楼,1,2010-11-09,,CT_zj_5801240007,网件AC22（虚）,,正常热点,嵊泗菜园组织部屋旁的电线杆上,,,
CT_zj_580c0501229,800405065,嵊泗菜园中学PHS, 学校,嵊泗菜园中学屋顶,浙江,舟山市,嵊泗县,嵊泗分公司,122.44608,30.72683,金州,183.152.192.2-183.152.207.254,光纤,C,工程局FZ,阮卫其,13395801152,0,否,,,1562,1024,3025,ZS-DH-NZ-1.domain,以太网,学校教学楼及办公楼,1,2010-11-09,,CT_zj_5800540001,网件AC22（虚）,,正常热点,嵊泗菜园中学PHS,,,
CT_zj_580c9901230,800411066,嵊泗菜园水产大楼机房室外, 其他,嵊泗菜园水产大楼机房外墙（朝西）,浙江,舟山市,嵊泗县,嵊泗分公司,122.45617,30.72644,金州,183.152.192.2-183.152.207.254,光纤,C,工程局FZ,阮卫其,13395801152,0,否,,,1555,1024,3025,ZS-DH-NZ-1.domain,以太网,水产大楼外街道,1,2010-11-09,,CT_zj_5809940029,网件AC22（虚）,,正常热点,嵊泗菜园水产大楼机房室外,,,
CT_zj_580c9901232,800406068,嵊泗菜园翡翠苑机房室外, 其他,嵊泗菜园翡翠苑机房外墙,浙江,舟山市,嵊泗县,嵊泗分公司,122.45785,30.72915,金州,183.152.192.2-183.152.207.254,光纤,C,工程局FZ,阮卫其,13395801152,0,否,,,1557,1024,3026,ZS-DH-NZ-1.domain,以太网,机房外街道,1,2010-11-09,,CT_zj_5809940008,网件AC22（虚）,,正常热点,嵊泗菜园翡翠苑机房室外,,,
CT_zj_580c0501233,800405069,嵊泗菜园一小PHS, 学校,嵊泗菜园一小,浙江,舟山市,嵊泗县,嵊泗分公司,122.45518,30.72479,金州,183.152.192.2-183.152.207.254,光纤,C,工程局FZ,阮卫其,13395801152,0,否,,,1563,1024,3027,ZS-DH-NZ-1.domain,以太网,学校教学楼及办公楼,1,2010-11-09,,CT_zj_5800540002,网件AC22（虚）,,正常热点,嵊泗菜园一小PHS,,,
CT_zj_580d0601237,800306052,岱山高亭雪晶宾馆, 宾馆酒店,岱山雪晶宾馆,浙江,舟山市,岱山县,岱山分公司,122.19566,30.24642,金州,183.152.192.2-183.152.207.254,光纤,C,工程局FZ,魏幸淑,15305807947,0,否,,,1042,1023,3029,ZS-DH-NZ-1.domain,以太网,大厅,1,2010-11-09,,CT_zj_5800630003,网件AC6（虚）,,正常热点,岱山高亭雪晶宾馆,,,
CT_zj_580a0601238,800106165,定海中大街凯悦宾馆, 宾馆酒店,定海凯悦宾馆,浙江,舟山市,定海县,定海分公司,122.10297,30.02086,金州,183.152.192.2-183.152.207.254,光纤,B,国人,顾磊,15305809609,0,否,,,87,1021,3024,ZS-DH-NZ-1.domain,以太网,2-4F,3,2010-11-09,,CT_zj_5800610018,网件AC6（虚）,,正常热点,定海中大街凯悦宾馆,,,
CT_zj_580b1101239,800211212,普陀沈家门财富融信商务楼, 商务楼,普陀财富融信商务楼15F鹏翔实业，运通旅游,浙江,舟山市,普陀县,普陀分公司,122.29479,29.949242,工程局,183.152.192.2-183.152.207.254,光纤,B,国人,乐谋勋,15305808705,0,是,,,713,1022,3035,ZS-DH-NZ-1.domain,以太网,全覆盖,5,2010-11-09,,CT_zj_5801120002,网件AC22（虚）,,正常热点,普陀沈家门财富融信商务楼,,,
CT_zj_580a1001240,80019053,定海临城体育馆主馆, 体育场馆,定海临城体育馆（主馆）,浙江,舟山市,定海县,定海分公司,122.20531,29.98331,金州,183.152.192.2-183.152.207.254,光纤,C,工程局SY,顾磊,15305809609,0,是,,,149,1041,3004,ZS-DH-NZ-1.domain,以太网,全覆盖,5,2010-11-09,,CT_zj_5801010002,华三AC定海76(主),定海临城体育馆,正常热点,定海临城体育馆主馆,,,
CT_zj_580b0601241,800206213,普陀沈家门华侨饭店, 宾馆酒店,普陀华侨饭店,浙江,舟山市,普陀县,普陀分公司,122.29696,29.946,工程局,183.152.192.2-183.152.207.254,光纤,C,京信,乐谋勋,15305808705,0,是,,,709,1022,3026,ZS-DH-NZ-1.domain,以太网,1-3F和11F,3,2010-11-09,,CT_zj_5800620011,网件AC22（虚）,,正常热点,普陀沈家门华侨饭店,,,
CT_zj_580b0801282,800208219,普陀沈家门花样年华, 休闲娱乐吧,普陀名都大酒店,浙江,舟山市,普陀县,普陀分公司,122.279596,29.946687,工程局,183.152.192.2-183.152.207.254,光纤,C,依网,乐谋勋,15305808705,0,是,,,712,1022,3028,ZS-DH-NZ-1.domain,以太网,3楼层（花样年华所在楼层）,2,2010-11-10,,CT_zj_5800820008,网件AC22（虚）,,正常热点,普陀沈家门花样年华,,,
CT_zj_580d0601284,800306054,岱山衢山申东大酒店, 宾馆酒店,岱山大衢申东大酒店,浙江,舟山市,岱山县,岱山分公司,122.29795,30.45197,金州,183.152.192.2-183.152.207.254,光纤,C,京信,魏幸淑,15305807947,0,是,,,1070,1023,3024,ZS-DH-NZ-1.domain,以太网,全覆盖,3,2010-11-10,,CT_zj_5800630004,网件AC6（虚）,,正常热点,岱山衢山申东大酒店,,,
CT_zj_580a1601287,800116167,定海浙江海洋学院电信营业厅, 电信自有,定海浙江海洋学院电信营业厅,浙江,舟山市,定海县,定海分公司,122.10748,30.03991,金州,183.152.192.2-183.152.207.254,光纤,C,工程局FZ,顾磊,15305809609,0,否,,,61,1001,3024,ZS-DH-NZ-1.domain,以太网,营业大厅,2,2010-11-10,,CT_zj_5801610004,贝尔AC38（虚）,定海浙江海洋学院,正常热点,定海浙江海洋学院电信营业厅,,,
CT_zj_580c9901321,800408077,嵊泗菜园海滨小区26号PHS, 其他,嵊泗菜园海滨小区26号,浙江,舟山市,嵊泗县,嵊泗分公司,122.45523,30.72703,金州,183.152.192.2-183.152.207.254,光纤,C,工程局FZ,阮卫其,13395801152,0,否,,,1570,1024,3024,ZS-DH-NZ-1.domain,以太网,海滨小区休闲区域,1,2010-11-25,,CT_zj_5809940026,网件AC22（虚）,,正常热点,嵊泗菜园海滨小区26号PHS,,,
CT_zj_580a0701323,800107171,定海白泉万金湖休闲渔庄, 休闲度假区,定海白泉万金湖休闲渔庄,浙江,舟山市,定海县,定海分公司,122.17289,30.07868,金州,183.152.192.2-183.152.207.254,光纤,C,工程局FZ,顾磊,15305809609,0,否,,,95,1021,3000,ZS-DH-NZ-1.domain,以太网,万金湖休闲渔庄全部,1,2010-11-25,,CT_zj_5800710001,网件AC6（虚）,,正常热点,定海白泉万金湖休闲渔庄,,,
CT_zj_580b0701341,800299227,普陀普陀山法雨寺下食堂室外, 休闲度假区,普陀山法雨寺下食堂顶,浙江,舟山市,普陀县,普陀分公司,122.389734,30.004625,工程局,183.152.192.2-183.152.207.254,光纤,D,工程局SY,乐谋勋,15305808705,0,否,,,684,1002,3029,ZS-DH-NZ-1.domain,以太网,法雨寺下食堂,1,2010-11-25,法雨寺，，,CT_zj_5800720007,贝尔ac47（虚）,,正常热点,普陀普陀山法雨寺下食堂室外,,,
CT_zj_580b0701064,800212192,普陀普陀山祥慧庵PHS, 休闲度假区,普陀山祥慧庵水箱顶,浙江,舟山市,普陀县,普陀分公司,122.40692,30.00233,工程局,183.152.192.2-183.152.207.254,光纤,D,工程局SY,乐谋勋,15305808705,0,否,,,683,1002,3029,ZS-DH-NZ-1.domain,以太网,前面寺院,1,2010-10-25,,CT_zj_5800720010,贝尔ac47（虚）,,正常热点,普陀普陀山祥慧庵PHS,,,
CT_zj_580b0501263,800205214,普陀东港普陀中学实验楼, 学校,普陀东港普陀中学实验楼,浙江,舟山市,普陀县,普陀分公司,122.3174,29.985736,工程局,183.152.192.2-183.152.207.254,光纤,A,京信,乐谋勋,15305808705,0,是,,,442,1002,3037,ZS-DH-NZ-1.domain,以太网,全覆盖,5,2010-11-10,,CT_zj_5800520018,贝尔AC41（虚）,普陀东港普陀中学,正常热点,普陀东港普陀中学实验楼,,,
CT_zj_580c9901265,800499070,嵊泗菜园海滨小区10号, 其他,嵊泗菜园海滨小区10号,浙江,舟山市,嵊泗县,嵊泗分公司,122.45663,30.72748,金州,183.152.192.2-183.152.207.254,光纤,C,工程局FZ,阮卫其,13395801152,0,否,,,2009,1004,3027,ZS-DH-NZ-1.domain,以太网,海滨小区休闲区域,1,2010-11-10,,CT_zj_5809940017,贝尔AC41（虚）,,正常热点,嵊泗菜园海滨小区10号,,,
CT_zj_580c9901266,800499071,嵊泗菜园新城花园机房室外, 其他,嵊泗菜园新城花园机房顶,浙江,舟山市,嵊泗县,嵊泗分公司,122.45456,30.72891,金州,183.152.192.2-183.152.207.254,光纤,C,工程局FZ,阮卫其,13395801152,0,否,,,1553,1024,3025,ZS-DH-NZ-1.domain,以太网,休闲区域及云龙路街道,1,2010-11-10,,CT_zj_5809940018,网件AC22（虚）,,正常热点,嵊泗菜园新城花园机房室外,,,
CT_zj_580c9901267,800499072,嵊泗菜园东海路463号公安监控杆, 其他,嵊泗菜园东海路463号门前公安监控点,浙江,舟山市,嵊泗县,嵊泗分公司,122.45758,30.73048,金州,183.152.192.2-183.152.207.254,光纤,C,工程局FZ,阮卫其,13395801152,0,否,,,1558,1024,3026,ZS-DH-NZ-1.domain,以太网,东海路街道,1,2010-11-10,,CT_zj_5809940019,网件AC22（虚）,,正常热点,嵊泗菜园东海路463号公安监控杆,,,
CT_zj_580c9901270,800499075,嵊泗菜园天宫路24号楼PHS, 其他,嵊泗菜园天宫路24号楼小灵通基站,浙江,舟山市,嵊泗县,嵊泗分公司,122.4542,30.72235,金州,183.152.192.2-183.152.207.254,光纤,C,工程局FZ,阮卫其,13395801152,0,否,,,1569,1024,3025,ZS-DH-NZ-1.domain,以太网,天弓路街道,1,2010-11-10,,CT_zj_5809940022,网件AC22（虚）,,正常热点,嵊泗菜园天宫路24号楼PHS,,,
CT_zj_580b0501272,800205216,普陀朱家尖科技学院宿舍楼1号楼, 学校,普陀朱家尖科技学院宿舍楼1号楼,浙江,舟山市,普陀县,普陀分公司,122.39083,29.917958,工程局,183.152.192.2-183.152.207.254,光纤,B,京信,乐谋勋,15305808705,0,是,,,259,1002,3028,ZS-DH-NZ-1.domain,以太网,全覆盖,5,2010-11-10,,CT_zj_5800520010,贝尔AC41（虚）,普陀朱家尖科技学院,正常热点,普陀朱家尖科技学院宿舍楼1号楼,,,
CT_zj_580b0501273,800205217,普陀朱家尖科技学院宿舍楼2号楼, 学校,普陀朱家尖科技学院宿舍楼2号楼,浙江,舟山市,普陀县,普陀分公司,122.390792,29.918248,工程局,183.152.192.2-183.152.207.254,光纤,B,京信,乐谋勋,15305808705,0,是,,,258,1002,3028,ZS-DH-NZ-1.domain,以太网,全覆盖,5,2010-11-10,,CT_zj_5800520011,贝尔AC41（虚）,普陀朱家尖科技学院,正常热点,普陀朱家尖科技学院宿舍楼2号楼,,,
CT_zj_580b9901292,800216222,普陀展茅海军观通站室外, 其他,大展海军观通站水泵房,浙江,舟山市,普陀县,普陀分公司,122.30778,30.02964,工程局,183.152.192.2-183.152.207.254,光纤,D,工程局SY,乐谋勋,15305808705,0,否,,,12,1002,3024,ZS-DH-NZ-1.domain,以太网,住宿楼、办公楼,5,2010-11-10,,CT_zj_5809920007,贝尔AC41（虚）,,正常热点,普陀展茅海军观通站室外,,,
CT_zj_580a1301324,800113172,定海临城卫生院, 医院,定海临城卫生院,浙江,舟山市,定海县,定海分公司,122.19851,29.99447,金州,183.152.192.2-183.152.207.254,光纤,C,工程局FZ,顾磊,15305809609,0,否,,,96,1021,3000,ZS-DH-NZ-1.domain,以太网,大厅以及输液室,2,2010-11-25,,CT_zj_5801310001,网件AC6（虚）,,正常热点,定海临城卫生院,,,
CT_zj_580a1601325,800116173,定海金塘大丰电信营业厅, 电信自有,定海大丰电信营业厅,浙江,舟山市,定海县,定海分公司,121.86237,30.00464,金州,183.152.192.2-183.152.207.254,光纤,D,工程局FZ,营业厅,8040005,0,否,,,78,1021,3000,ZS-DH-NZ-1.domain,以太网,营业大厅,1,2010-11-25,,CT_zj_5801610005,网件AC6（虚）,,正常热点,定海金塘大丰电信营业厅,,,
CT_zj_580a1601327,800116175,定海岑港电信营业厅, 电信自有,定海岑港电信营业厅,浙江,舟山市,定海县,定海分公司,121.996,30.07557,金州,183.152.192.2-183.152.207.254,光纤,D,工程局FZ,营业厅,8010004,0,否,,,109,1041,3000,ZS-DH-NZ-1.domain,以太网,营业大厅,2,2010-11-25,,CT_zj_5801610007,华三AC定海76(主),,正常热点,定海岑港电信营业厅,,,
CT_zj_580a9901180,800114159,定海青垒头路东山铝合金市场, 其他,定海东山路铝合金市场,浙江,舟山市,定海县,定海分公司,122.11467,29.99957,金州,183.152.192.2-183.152.207.254,光纤,C,工程局FZ,顾磊,15305809609,0,否,,,79,1021,3024,ZS-DH-NZ-1.domain,以太网,铝合金市场对面部队办公楼,1,2010-10-28,,CT_zj_5809910026,网件AC6（虚）,,正常热点,定海青垒头路东山铝合金市场,,,
CT_zj_580a1101181,800111160,定海建设银行大楼, 商务楼,定海建设银行大楼,浙江,舟山市,定海县,定海分公司,122.10375,30.01976,金州,183.152.192.2-183.152.207.254,光纤,C,国人,业主,13505800520,0,是,,,74,1021,3024,ZS-DH-NZ-1.domain,以太网,全覆盖,10,2010-10-28,,CT_zj_5801110004,网件AC6（虚）,,正常热点,定海建设银行大楼,,,
CT_zj_580a9901182,800199161,定海青少年宫活动中心, 其他,定海青少年宫活动中心4F未成年人网络工程,浙江,舟山市,定海县,定海分公司,122.10422,30.03292,金州,183.152.192.2-183.152.207.254,光纤,C,国人,顾磊,15305809609,0,是,,,73,1021,3024,ZS-DH-NZ-1.domain,以太网,全覆盖,4,2010-10-28,,CT_zj_5800510019,网件AC6（虚）,,正常热点,定海青少年宫活动中心,,,
CT_zj_580a0801184,800108163,定海解放西路普乐迪量贩KTV, 休闲娱乐吧,定海解放西路普乐迪量贩KTV,浙江,舟山市,定海县,定海分公司,122.09688,30.01742,金州,183.152.192.2-183.152.207.254,光纤,C,国人,邓师傅,15168050586,0,是,,,71,1021,3024,ZS-DH-NZ-1.domain,以太网,2-3F,2,2010-10-28,,CT_zj_5800810002,网件AC6（虚）,,正常热点,定海解放西路普乐迪量贩KTV,,,
CT_zj_580a0601185,800106164,定海新桥路梅园宾馆, 宾馆酒店,定海梅园宾馆,浙江,舟山市,定海县,定海分公司,122.11911,30.01795,金州,183.152.192.2-183.152.207.254,光纤,B,工程局FZ,顾磊,15305809609,0,否,,,16,1021,3024,ZS-DH-NZ-1.domain,以太网,4-5F客房,4,2010-10-28,,CT_zj_5800610017,网件AC6（虚）,,正常热点,定海新桥路梅园宾馆,,,
CT_zj_580a0601306,800106170,定海海之苑宾馆2号楼, 宾馆酒店,定海海之苑宾馆2号楼,浙江,舟山市,定海县,定海分公司,122.11134,30.00389,金州,183.152.192.2-183.152.207.254,光纤,A,依网,顾磊,15305809609,0,是,,,257,1021,3027,ZS-DH-NZ-1.domain,以太网,1-3F楼层,1,2010-11-25,,CT_zj_5800610019,网件AC6（虚）,定海海之苑宾馆,正常热点,定海海之苑宾馆2号楼,,,
CT_zj_580a1101383,800111188,定海临城建设大厦B座, 商务楼,定海临城建设大厦B座1F大厅,浙江,舟山市,定海县,定海分公司,122.20026,29.99343,金州,183.152.192.2-183.152.207.254,光纤,C,浙贝,陈经理,13675805990,0,是,,,224,1021,3024,ZS-DH-NZ-1.domain,以太网,1F,14,2010-12-02,,CT_zj_5801110027,网件AC6（虚）,定海临城建设大厦,正常热点,定海临城建设大厦B座,,,
CT_zj_580b0401417,800204252,普陀朱家尖蜈蚣峙码头侯船厅, 码头,普陀朱家尖蜈蚣峙码头侯船厅,浙江,舟山市,普陀县,普陀分公司,122.36762,29.95404,工程局,183.152.192.2-183.152.207.254,光纤,C,工程局SY,乐谋勋,15305808705,0,否,,,1058,1042,3033,ZS-DH-NZ-1.domain,以太网,侯船厅南,4,2010-12-02,,CT_zj_5800420003,华三AC普陀78(主),普陀朱家尖蜈蚣峙码头,正常热点,普陀朱家尖蜈蚣峙码头侯船厅,,,
CT_zj_580b0801418,800208253,普陀展茅欧华会所, 休闲娱乐吧,普陀展茅欧华会所1F茶吧,浙江,舟山市,普陀县,普陀分公司,122.28392,30.0168,工程局,183.152.192.2-183.152.207.254,光纤,A,工程局FZ,乐谋勋,15305808705,0,否,,,660,1002,3030,ZS-DH-NZ-1.domain,以太网,欧华会所1F茶吧,2,2010-12-02,,CT_zj_5800820009,贝尔ac47（虚）,,正常热点,普陀展茅欧华会所,,,
CT_zj_580a1201426,800112196,定海区政府劳动局PHS, 政府机关等事业单位,定海区政府劳动局楼顶,浙江,舟山市,定海县,定海分公司,122.10239,30.02227,金州,183.152.192.2-183.152.207.254,光纤,C,工程局FZ,顾磊,15305809609,0,否,,,295,1021,3026,ZS-DH-NZ-1.domain,以太网,区府大院,1,2010-12-02,,CT_zj_5801210019,网件AC6（虚）,定海区政府,正常热点,定海区政府劳动局PHS,,,
CT_zj_580b1101427,800299255,普陀东港邦泰泊寓, 商务楼,灵秀街228号,浙江,舟山市,普陀县,普陀分公司,122.31538,29.95983,工程局,183.152.192.2-183.152.207.254,光纤,B,工程局,乐谋勋,15305808705,0,是,,,464,1002,3028,ZS-DH-NZ-1.domain,以太网,全覆盖,14,2010-12-02,,CT_zj_58011200241,贝尔AC41（虚）,,正常热点,普陀东港邦泰泊寓,,,
CT_zj_580b0801428,800208256,普陀沈家门滨港之夜, 休闲娱乐吧,普陀沈家门滨港之夜KTV会所,浙江,舟山市,普陀县,普陀分公司,122.31728,29.94457,工程局,183.152.192.2-183.152.207.254,光纤,C,京信,乐谋勋,15305808705,0,否,,,768,1022,3034,ZS-DH-NZ-1.domain,以太网,KTV会所,3,2010-12-02,,CT_zj_5800820010,网件AC22（虚）,,正常热点,普陀沈家门滨港之夜,,,
CT_zj_580b0801081,800208194,普陀东港半岛咖啡, 休闲娱乐吧,普陀东港半岛咖啡,浙江,舟山市,普陀县,普陀分公司,122.3168,29.95753,工程局,183.152.192.2-183.152.207.254,光纤,A,工程局FZ,乐谋勋,15305808705,0,否,,,506,1022,3029,ZS-DH-NZ-1.domain,以太网,咖啡厅,2,2010-10-25,,CT_zj_5800820005,网件AC22（虚）,,正常热点,普陀东港半岛咖啡,,,
CT_zj_580b0801082,800208195,普陀东港圣卡罗咖啡, 休闲娱乐吧,普陀东港圣卡罗咖啡,浙江,舟山市,普陀县,普陀分公司,122.31671,29.95647,工程局,183.152.192.2-183.152.207.254,光纤,B,工程局FZ,乐谋勋,15305808705,0,否,,,507,1022,3029,ZS-DH-NZ-1.domain,以太网,咖啡厅,2,2010-10-25,,CT_zj_5800820006,网件AC22（虚）,,正常热点,普陀东港圣卡罗咖啡,,,
CT_zj_580b1501083,800215196,普陀沈家门华之友电器, 大型购物广场,普陀沈家门华之友电器,浙江,舟山市,普陀县,普陀分公司,122.29883,29.94691,工程局,183.152.192.2-183.152.207.254,光纤,D,工程局FZ,乐谋勋,15305808705,0,否,,,618,1022,3029,ZS-DH-NZ-1.domain,以太网,华之友电器1F大厅,1,2010-10-25,,CT_zj_5801520001,网件AC22（虚）,,正常热点,普陀沈家门华之友电器,,,
CT_zj_580c9901086,800499040,嵊泗菜园海晶圆4号PHS, 其他,嵊泗菜园海晶圆4号,浙江,舟山市,嵊泗县,嵊泗分公司,122.45149,30.72941,金州,183.152.192.2-183.152.207.254,光纤,C,工程局FZ,阮卫其,13395801152,0,否,,,1533,1024,3025,ZS-DH-NZ-1.domain,以太网,海晶圆居民小区,1,2010-10-25,,CT_zj_5809940002,网件AC22（虚）,,正常热点,嵊泗菜园海晶圆4号PHS,,,
CT_zj_580c1201087,800499041,嵊泗菜园水产公司宿舍楼, 政府机关等事业单位,嵊泗菜园水产公司宿舍楼,浙江,舟山市,嵊泗县,嵊泗分公司,122.45054,30.72922,金州,183.152.192.2-183.152.207.254,光纤,C,工程局FZ,阮卫其,13395801152,0,否,,,1534,1024,3025,ZS-DH-NZ-1.domain,以太网,法院及街面及周边用户,1,2010-10-25,,CT_zj_5801240010,网件AC22（虚）,,正常热点,嵊泗菜园水产公司宿舍楼,,,
CT_zj_580c9901088,800499042,嵊泗菜园粮油公司, 其他,嵊泗菜园粮油公司,浙江,舟山市,嵊泗县,嵊泗分公司,122.449401,30.728419,金州,183.152.192.2-183.152.207.254,光纤,C,工程局FZ,阮卫其,13395801152,0,否,,,1535,1024,3025,ZS-DH-NZ-1.domain,以太网,周边居民小区及菜园二小教师楼,1,2010-10-25,,CT_zj_5800540003,网件AC22（虚）,,正常热点,嵊泗菜园粮油公司,,,
CT_zj_580c1201089,800499043,嵊泗菜园人武部宿舍, 政府机关等事业单位,嵊泗菜园人武部宿舍,浙江,舟山市,嵊泗县,嵊泗分公司,122.44637,30.72898,金州,183.152.192.2-183.152.207.254,光纤,C,工程局FZ,阮卫其,13395801152,0,否,,,1536,1024,3025,ZS-DH-NZ-1.domain,以太网,县委县政府及周边宿舍居民,1,2010-10-25,,CT_zj_5801240008,网件AC22（虚）,,正常热点,嵊泗菜园人武部宿舍,,,
CT_zj_580c9901090,800499044,嵊泗菜园芳丽苑PHS, 其他,嵊泗菜园芳苑,浙江,舟山市,嵊泗县,嵊泗分公司,122.4454,30.72786,金州,183.152.192.2-183.152.207.254,光纤,C,工程局FZ,阮卫其,13395801152,0,否,,,1537,1024,3025,ZS-DH-NZ-1.domain,以太网,居民小区,1,2010-10-25,,CT_zj_5809940006,网件AC22（虚）,,正常热点,嵊泗菜园芳丽苑PHS,,,
CT_zj_580c9901091,800499045,嵊泗菜园晶湾苑8幢PHS, 其他,嵊泗菜园晶湾苑8幢,浙江,舟山市,嵊泗县,嵊泗分公司,122.44397,30.72635,金州,183.152.192.2-183.152.207.254,光纤,C,工程局FZ,阮卫其,13395801152,0,否,,,1538,1024,3025,ZS-DH-NZ-1.domain,以太网,晶湾苑小区居民,1,2010-10-25,,CT_zj_5809940007,网件AC22（虚）,,正常热点,嵊泗菜园晶湾苑8幢PHS,,,
CT_zj_580c1101092,800499046,嵊泗菜园丰田苑5幢PHS, 商务楼,嵊泗菜园丰田苑5幢,浙江,舟山市,嵊泗县,嵊泗分公司,122.44839,30.72951,金州,183.152.192.2-183.152.207.254,光纤,C,工程局FZ,阮卫其,13395801152,0,否,,,1539,1024,3025,ZS-DH-NZ-1.domain,以太网,文广大楼及小区居民,1,2010-10-25,,CT_zj_5801140002,网件AC22（虚）,,正常热点,嵊泗菜园丰田苑5幢PHS,,,
CT_zj_580c1301093,800499047,嵊泗菜园塑料网具厂PHS, 医院,嵊泗菜园塑料网具厂,浙江,舟山市,嵊泗县,嵊泗分公司,122.45305,30.72504,金州,183.152.192.2-183.152.207.254,光纤,C,工程局FZ,阮卫其,13395801152,0,否,,,1540,1024,3025,ZS-DH-NZ-1.domain,以太网,中医院及居民区,1,2010-10-25,,CT_zj_5801340001,网件AC22（虚）,,正常热点,嵊泗菜园塑料网具厂PHS,,,
CT_zj_580c9901095,800499049,嵊泗菜园横山苑15幢PHS, 其他,嵊泗菜园横山苑15幢,浙江,舟山市,嵊泗县,嵊泗分公司,122.45072,30.72177,金州,183.152.192.2-183.152.207.254,光纤,C,工程局FZ,阮卫其,13395801152,0,否,,,1542,1024,3025,ZS-DH-NZ-1.domain,以太网,横山苑居民区,1,2010-10-25,,CT_zj_5809940011,网件AC22（虚）,,正常热点,嵊泗菜园横山苑15幢PHS,,,
CT_zj_580c9901096,800499050,嵊泗菜园横山苑10幢, 其他,嵊泗菜园横山苑10幢,浙江,舟山市,嵊泗县,嵊泗分公司,122.452216,30.722213,金州,183.152.192.2-183.152.207.254,光纤,C,工程局FZ,阮卫其,13395801152,0,否,,,1543,1024,3025,ZS-DH-NZ-1.domain,以太网,横山苑居民区,1,2010-10-25,,CT_zj_5809940012,网件AC22（虚）,,正常热点,嵊泗菜园横山苑10幢,,,
CT_zj_580c9901098,800415052,嵊泗菜园台客隆, 其他,嵊泗菜园台客隆,浙江,舟山市,嵊泗县,嵊泗分公司,122.45295,30.72922,金州,183.152.192.2-183.152.207.254,光纤,B,工程局FZ,阮卫其,13395801152,0,否,,,1552,1024,3025,ZS-DH-NZ-1.domain,以太网,明珠苑街面及居民小区,1,2010-10-25,,CT_zj_5809940025,网件AC22（虚）,,正常热点,嵊泗菜园台客隆,,,
CT_zj_580c1301100,800499054,嵊泗菜园医防弄57号PHS, 医院,嵊泗菜园医防弄57号,浙江,舟山市,嵊泗县,嵊泗分公司,122.45023,30.72684,金州,183.152.192.2-183.152.207.254,光纤,C,工程局FZ,阮卫其,13395801152,0,否,,,1546,1024,3025,ZS-DH-NZ-1.domain,以太网,医院住院部及门诊大楼,1,2010-10-25,,CT_zj_5801340002,网件AC22（虚）,,正常热点,嵊泗菜园医防弄57号PHS,,,
CT_zj_580a0601121,800106128,定海瑞豪大酒店, 宾馆酒店,定海瑞豪大酒店,浙江,舟山市,定海县,定海分公司,122.11553,30.01819,金州,183.152.192.2-183.152.207.254,光纤,B,国人,金师傅,18967201020,0,是,,,105,1041,3029,ZS-DH-NZ-1.domain,以太网,全覆盖,8,2010-10-25,,CT_zj_5800610011,华三AC定海76(主),,正常热点,定海瑞豪大酒店,,,
CT_zj_580a1101622,800111218,定海临城建设大厦C座, 商务楼,定海临城建设大厦C座1F百联置业2F,浙江,舟山市,定海县,定海分公司,122.20029,29.99405,金州,183.152.192.2-183.152.207.254,光纤,C,浙贝,陈经理,13675805990,0,是,,,236,1021,3024,ZS-DH-NZ-1.domain,以太网,1F~2F,13,2010-12-03,,CT_zj_5801110039,网件AC6（虚）,定海临城建设大厦,正常热点,定海临城建设大厦C座,,,
CT_zj_580b0701062,800212190,普陀普陀山文物馆室外, 休闲度假区,普陀普陀山文物馆（法雨路1号）,浙江,舟山市,普陀县,普陀分公司,122.38521,29.984,工程局,183.152.192.2-183.152.207.254,光纤,D,工程局SY,乐谋勋,15305808705,0,否,,,677,1002,3029,ZS-DH-NZ-1.domain,以太网,文物馆和尚寝室院子,3,2010-10-25,,CT_zj_5800720002,贝尔ac47（虚）,,正常热点,普陀普陀山文物馆室外,,,
CT_zj_580b9901063,800299191,普陀普陀山梵音洞部队篮球场旁电信杆, 其他,普陀山梵音洞部队篮球场旁12米杆子,浙江,舟山市,普陀县,普陀分公司,122.40357,30.00339,工程局,183.152.192.2-183.152.207.254,光纤,D,工程局SY,乐谋勋,15305808705,0,否,,,688,1002,3029,ZS-DH-NZ-1.domain,以太网,前面部队房子,2,2010-10-25,,CT_zj_5809920037,贝尔ac47（虚）,,正常热点,普陀普陀山梵音洞部队篮球场旁电信杆,,,
CT_zj_580a0801866,800108280,定海昌国路江南村茶馆, 休闲娱乐吧,定海昌国路江南村茶馆,浙江,舟山市,定海县,定海分公司,122.10956,30.02353,金州,183.152.192.2-183.152.207.254,光纤,C,工程局SY,顾磊,15305809609,0,否,,,285,1021,3025,ZS-DH-NZ-1.domain,以太网,茶馆全部,3,2011-02-25,,CT_zj_5800810005,网件AC6（虚）,,正常热点,定海昌国路江南村茶馆,,,
CT_zj_580b9900169,800299325,普陀沈家门东海东路181号室外, 其他,东海东路181号,浙江,舟山市,普陀县,普陀分公司,122.29741,29.9502,工程局,183.152.192.2-183.152.207.254,光纤,A,工程局FZ,乐谋勋,15305808705,0,否,,,690,1022,3026,ZS-DH-NZ-1.domain,以太网,电信营业厅到海中洲范围内的东海路段,1,2009-11-30,,CT_zj_5809920002,网件AC22（虚）,,正常热点,普陀沈家门东海东路181号室外,,,
CT_zj_580a9901910,800199287,定海环城南路284号公话亭, 其他,定海环城南路284号前电话亭,浙江,舟山市,定海县,定海分公司,122.104,30.01187,金州,183.152.192.2-183.152.207.254,光纤,C,工程局SY,顾磊,15305809609,0,否,,,44,1041,3024,ZS-DH-NZ-1.domain,以太网,沿街周边区域,3,2011-03-13,,CT_zj_5809910037,华三AC定海76(主),,正常热点,定海环城南路284号公话亭,,,
CT_zj_580a9901911,800199288,定海环城南路370号公话亭, 其他,定海环城南路370号前电话亭,浙江,舟山市,定海县,定海分公司,122.10844,30.01187,金州,183.152.192.2-183.152.207.254,光纤,C,工程局SY,顾磊,15305809609,0,否,,,35,1041,3024,ZS-DH-NZ-1.domain,以太网,沿街周边区域,3,2011-03-13,,CT_zj_5809910038,华三AC定海76(主),,正常热点,定海环城南路370号公话亭,,,
CT_zj_580a9901912,800199289,定海环城南路392-2号好邻居超市公话亭, 其他,定海环城南路好邻居超市前电话亭,浙江,舟山市,定海县,定海分公司,122.10272,30.01195,金州,183.152.192.2-183.152.207.254,光纤,C,工程局SY,顾磊,15305809609,0,否,,,28,1041,3024,ZS-DH-NZ-1.domain,以太网,沿街周边区域,2,2011-03-13,,CT_zj_5809910039,华三AC定海76(主),,正常热点,定海环城南路392-2号好邻居超市公话亭,,,
CT_zj_580a9901913,800199290,定海人民南路303号公话亭, 其他,定海人民南路303号前电话亭,浙江,舟山市,定海县,定海分公司,122.10298,30.01134,金州,183.152.192.2-183.152.207.254,光纤,C,工程局SY,顾磊,15305809609,0,否,,,47,1041,3024,ZS-DH-NZ-1.domain,以太网,沿街周边区域,3,2011-03-13,,CT_zj_5809910040,华三AC定海76(主),,正常热点,定海人民南路303号公话亭,,,
CT_zj_580a9901915,800199292,定海解放西路52号金威房产PHS, 其他,定海解放西路52号金威房产小灵通基站,浙江,舟山市,定海县,定海分公司,122.100891,30.018039,金州,183.152.192.2-183.152.207.254,光纤,C,工程局SY,顾磊,15305809609,0,否,,,200,1001,3026,ZS-DH-NZ-1.domain,以太网,周边区域,4,2011-03-13,,CT_zj_5809910042,贝尔ac44（虚）,,正常热点,定海解放西路52号金威房产PHS,,,
CT_zj_580a1601916,800116293,定海东瀛路城东电信支局, 电信自有,定海城东电信支局,浙江,舟山市,定海县,定海分公司,122.12004,30.02149,金州,183.152.192.2-183.152.207.254,光纤,A,工程局SY,顾磊,15305809609,0,否,,,98,1021,3024,ZS-DH-NZ-1.domain,以太网,支局内办公室,1,2011-03-13,,CT_zj_5801610013,网件AC6（虚）,,正常热点,定海东瀛路城东电信支局,,,
CT_zj_580a1601917,800116294,定海东瀛路电信营业厅, 电信自有,定海东瀛路电信营业厅,浙江,舟山市,定海县,定海分公司,122.12004,30.02149,金州,183.152.192.2-183.152.207.254,光纤,A,工程局SY,顾磊,15305809609,0,否,,,99,1021,3024,ZS-DH-NZ-1.domain,以太网,营业厅内,1,2011-03-13,,CT_zj_5801610014,网件AC6（虚）,,正常热点,定海东瀛路电信营业厅,,,
CT_zj_580d1201921,800312077,岱山高亭行政审批中心, 政府机关等事业单位,岱山高亭行政审批中心,浙江,舟山市,岱山县,岱山分公司,122.206518,30.248551,金州,183.152.192.2-183.152.207.254,光纤,A,京信,魏幸淑,15305807947,0,是,,,1092,1023,3026,ZS-DH-NZ-1.domain,以太网,全覆盖,1,2011-03-17,,CT_zj_5801230012,网件AC6（虚）,,正常热点,岱山高亭行政审批中心,,,
CT_zj_580b9901981,800299356,普陀浦西滨海星城, 其他,普陀区浦西沈家门街道,浙江,舟山市,普陀县,普陀分公司,122.24864,29.97191,工程局,183.152.192.2-183.152.207.254,光纤,D,工程局,乐谋勋,15305808705,0,是,,,804,1022,3027,ZS-DH-NZ-1.domain,以太网,A15大厅,1,2011-03-30,,CT_zj_5809920076,网件AC22（虚）,,正常热点,普陀浦西滨海星城,,,
CT_zj_580b1400060,80026026,普陀沈家门食品厂路电脑街室外, 聚类市场,沈家门食品厂路,浙江,舟山市,普陀县,普陀分公司,122.28901,29.94803,工程局,183.152.192.2-183.152.207.254,光纤,A,瑞达,乐谋勋,15305808705,0,否,,,597,1022,3026,ZS-DH-NZ-1.domain,以太网,道路两边电脑商铺,1,2009-12-31,,CT_zj_5801420003,网件AC22（虚）,,正常热点,普陀沈家门食品厂路电脑街室外,,,
CT_zj_580b0700062,80022033,普陀沈家门北安公园室外, 休闲度假区,沈家门新街93号,浙江,舟山市,普陀县,普陀分公司,122.29869,29.95055,工程局,183.152.192.2-183.152.207.254,光纤,A,瑞达,乐谋勋,15305808705,1,是,,,600,1022,3026,ZS-DH-NZ-1.domain,以太网,普陀沈家门北安公园以及分流,2,2010-06-12,,CT_zj_5800720030,网件AC22（虚）,普陀沈家门北安公园,正常热点,普陀沈家门北安公园室外,,,
CT_zj_580a0502025,800105310,定海浙江海洋学院6号宿舍楼PHS, 学校,定海浙江海洋学院6号宿舍楼顶小灵通基站,浙江,舟山市,定海县,定海分公司,122.10745,30.04087,金州,183.152.192.2-183.152.207.254,光纤,C,工程局SY,顾磊,15305809609,0,是,,,134,1021,2903,ZS-DH-NZ-1.domain,以太网,6号宿舍楼附近,1,2011-04-15,,CT_zj_5800501004,网件AC6（虚）,定海浙江海洋学院,正常热点,定海浙江海洋学院6号宿舍楼PHS,,,
CT_zj_580a0502027,800105312,定海浙江海洋学院活动中心PHS, 学校,定海浙江海洋学院活动中心顶小灵通基站,浙江,舟山市,定海县,定海分公司,122.10734,30.04003,金州,183.152.192.2-183.152.207.254,光纤,C,工程局SY,顾磊,15305809609,0,是,,,136,1021,2903,ZS-DH-NZ-1.domain,以太网,活动中心附近,1,2011-04-15,,CT_zj_5800501006,网件AC6（虚）,定海浙江海洋学院,正常热点,定海浙江海洋学院活动中心PHS,,,
CT_zj_580a9902095,800199318,定海昌国路50号公话亭, 其他,定海昌国路50号电话亭,浙江,舟山市,定海县,定海分公司,122.09898,30.02094,金州,183.152.192.2-183.152.207.254,光纤,C,工程局SY,顾磊,15305809609,0,否,,,66,1041,3025,ZS-DH-NZ-1.domain,以太网,周边区域,3,2011-04-28,,CT_zj_5809910046,华三AC定海76(主),,正常热点,定海昌国路50号公话亭,,,
CT_zj_580d1502096,800315091,岱山高亭原市场局PHS, 大型购物广场,岱山原市场局小灵通基站,浙江,舟山市,岱山县,岱山分公司,122.19937,30.24808,金州,183.152.192.2-183.152.207.254,光纤,C,国人,魏幸淑,15305807947,0,否,,,2179,1003,3024,ZS-DH-NZ-1.domain,以太网,长河路、公园,1,2011-04-28,,CT_zj_5801520009,贝尔ac44（虚）,,正常热点,岱山高亭原市场局PHS,,,
CT_zj_580b1302097,800213362,普陀东港医药仓库PHS, 医院,东港海州路,浙江,舟山市,普陀县,普陀分公司,122.31587,29.95834,工程局,183.152.192.2-183.152.207.254,光纤,C,工程局SY,乐谋勋,15305808705,0,否,,,805,1022,3039,ZS-DH-NZ-1.domain,以太网,海州路附近街道,2,2011-04-28,,CT_zj_5801320004,网件AC22（虚）,,正常热点,普陀东港医药仓库PHS,,,
CT_zj_580b1202098,800212363,普陀东港农林水利局PHS, 政府机关等事业单位,东港兴普大道,浙江,舟山市,普陀县,普陀分公司,122.31686,29.96668,工程局,183.152.192.2-183.152.207.254,光纤,C,工程局SY,乐谋勋,15305808705,0,否,,,809,1022,3039,ZS-DH-NZ-1.domain,以太网,周边区域,1,2011-04-28,,CT_zj_5801220020,网件AC22（虚）,,正常热点,普陀东港农林水利局PHS,,,
CT_zj_580b1602099,800216364,普陀东港电信仓库门口PHS, 电信自有,普陀东港海莲路180,浙江,舟山市,普陀县,普陀分公司,122.30931,29.95793,工程局,183.152.192.2-183.152.207.254,光纤,C,工程局SY,乐谋勋,15305808705,0,否,,,262,1002,3038,ZS-DH-NZ-1.domain,以太网,周边区域,1,2011-04-28,,CT_zj_5801620036,贝尔AC41（虚）,,正常热点,普陀东港电信仓库门口PHS,,,
CT_zj_580b9902101,800299365,普陀朱家尖大山部队室外, 其他,普陀朱家尖大山部队,浙江,舟山市,普陀县,普陀分公司,122.41531,29.9076,工程局,183.152.192.2-183.152.207.254,光纤,C,工程局SY,乐谋勋,15305808705,0,否,,,2,1002,3029,ZS-DH-NZ-1.domain,以太网,朱家尖东沙,3,2011-04-30,,CT_zj_5809901293,贝尔AC41（虚）,,正常热点,普陀朱家尖大山部队室外,,,
CT_zj_580a9902122,800199320,定海昌国路19号陆家茶庄门口交接杆PHS, 其他,定海昌国路19号陆家茶庄门口交接杆PHS,浙江,舟山市,定海县,定海分公司,122.099625,30.021172,金州,183.152.192.2-183.152.207.254,光纤,C,工程局SY,顾磊,15305809609,0,否,,,122,1021,3024,ZS-DH-NZ-1.domain,以太网,昌国路总府路交叉口附近店铺,1,2011-05-03,,CT_zj_5809910048,网件AC6（虚）,,正常热点,定海昌国路19号陆家茶庄门口交接杆PHS,,,
CT_zj_580b9902141,800299366,普陀沈家门华晶大厦后P001电信PHS, 其他,普陀华晶大厦后P001电信电杆小灵通基站,浙江,舟山市,普陀县,普陀分公司,122.29469,29.94552,工程局,183.152.192.2-183.152.207.254,光纤,C,工程局FZ,乐谋勋,15305808705,0,否,,,3,1002,3034,ZS-DH-NZ-1.domain,以太网,西大街附近店铺及街道,1,2011-05-05,,CT_zj_5809920078,贝尔AC41（虚）,,正常热点,普陀沈家门华晶大厦后P001电信PHS,,,
CT_zj_580b9902143,800299368,普陀沈家门东河路文化路交叉口电信PHS, 其他,普陀东河路。文化路交叉口电信电杆,浙江,舟山市,普陀县,普陀分公司,122.299,29.94809,工程局,183.152.192.2-183.152.207.254,光纤,C,工程局FZ,乐谋勋,15305808705,0,否,,,5,1002,3036,ZS-DH-NZ-1.domain,以太网,东河路一部及文化路一部,1,2011-05-05,,CT_zj_5809920080,贝尔AC41（虚）,,正常热点,普陀沈家门东河路文化路交叉口电信PHS,,,
CT_zj_580b0301850,800203347,普陀城北客运集散中心, 长途汽车站,普陀区客运乘换中心大厅,浙江,舟山市,普陀县,普陀分公司,122.282346,29.967143,工程局,183.152.192.2-183.152.207.254,光纤,A,京信,乐谋勋,15305808705,0,是,,,797,1022,3026,ZS-DH-NZ-1.domain,以太网,1F大厅,4,2011-02-25,,CT_zj_5800320001,网件AC22（虚）,,正常热点,普陀城北客运集散中心,,,
CT_zj_580b1101851,800211348,普陀东港开发公司, 商务楼,普陀东港开发公司,浙江,舟山市,普陀县,普陀分公司,122.322828,29.976111,工程局,183.152.192.2-183.152.207.254,光纤,C,京信,乐谋勋,15305808705,0,是,,,798,1022,3037,ZS-DH-NZ-1.domain,以太网,全覆盖,13,2011-02-25,,CT_zj_5801120007,网件AC22（虚）,,正常热点,普陀东港开发公司,,,
CT_zj_580b9900196,800206336,普陀沈家门东海中路249号鸿丽宾馆PHS, 其他,鸿丽宾馆,浙江,舟山市,普陀县,普陀分公司,122.29067,29.94752,工程局,183.152.192.2-183.152.207.254,光纤,C,工程局FZ,乐谋勋,15305808705,0,否,,,595,1022,3026,ZS-DH-NZ-1.domain,以太网,鸿丽宾馆为中心的东海中路南北150米路段,1,2009-11-30,,CT_zj_5800620032,网件AC22（虚）,,正常热点,普陀沈家门东海中路249号鸿丽宾馆PHS,,,
CT_zj_580a9901903,800199281,定海海山公园木子苑对面PHS, 其他,定海海山公园海山增辉旁杆子小灵通基站,浙江,舟山市,定海县,定海分公司,122.098025,30.025844,金州,183.152.192.2-183.152.207.254,光纤,C,工程局SY,顾磊,15305809609,0,否,,,218,1001,3000,ZS-DH-NZ-1.domain,以太网,海山公园海山增辉广场,3,2011-03-13,,CT_zj_5809910034,贝尔ac44（虚）,,正常热点,定海海山公园木子苑对面PHS,,,
CT_zj_580a0601905,800106283,定海盐仓金鹰大酒店, 宾馆酒店,定海盐仓金鹰大酒店,浙江,舟山市,定海县,定海分公司,122.05223,30.01094,金州,183.152.192.2-183.152.207.254,光纤,C,依网,工程部经理,18957225016,0,是,,,123,1021,3031,ZS-DH-NZ-1.domain,以太网,全覆盖,8,2011-03-13,,CT_zj_5800610038,网件AC6（虚）,,正常热点,定海盐仓金鹰大酒店,,,
CT_zj_580b1601918,800216352,普陀沈家门电信大楼食堂, 电信自有,普陀电信食堂,浙江,舟山市,普陀县,普陀分公司,122.29798,29.95006,工程局,183.152.192.2-183.152.207.254,光纤,A,工程局SY,乐谋勋,15305808705,0,否,,,811,1022,3026,ZS-DH-NZ-1.domain,以太网,包厢和食堂,2,2011-03-13,,CT_zj_5801620011,网件AC22（虚）,,正常热点,普陀沈家门电信大楼食堂,,,
CT_zj_580a0601944,800106298,定海和昌弄26号利民宾馆, 宾馆酒店,定海和昌弄26号利民宾馆,浙江,舟山市,定海县,定海分公司,122.10435,30.01291,金州,183.152.192.2-183.152.207.254,光纤,C,工程局SY,顾磊,15305809609,0,否,,,109,1021,3024,ZS-DH-NZ-1.domain,以太网,宾馆1楼2楼过道,2,2011-03-19,,CT_zj_5800610040,网件AC6（虚）,,正常热点,定海和昌弄26号利民宾馆,,,
CT_zj_580b9901689,800299288,普陀东港安康街3号楼PHS, 其他,安康街3号楼屋顶小灵通基站,浙江,舟山市,普陀县,普陀分公司,122.31398,29.9548,工程局,183.152.192.2-183.152.207.254,光纤,C,工程局SY,乐谋勋,15305808705,0,否,,,500,1002,3035,ZS-DH-NZ-1.domain,以太网,周边居民区,2,2010-12-15,,CT_zj_5809920069,贝尔AC41（虚）,,正常热点,普陀东港安康街3号楼PHS,,,
CT_zj_580b9901690,800299289,普陀东港华定公寓4幢PHS, 其他,华定公寓4幢屋顶小灵通基站,浙江,舟山市,普陀县,普陀分公司,122.31465,29.95634,工程局,183.152.192.2-183.152.207.254,光纤,C,工程局SY,乐谋勋,15305808705,0,否,,,726,1022,3035,ZS-DH-NZ-1.domain,以太网,周边居民区,1,2010-12-15,,CT_zj_5809920070,网件AC22（虚）,,正常热点,普陀东港华定公寓4幢PHS,,,
CT_zj_580b9901691,800205290,普陀东港锦江花园幼儿园PHS, 其他,锦江花园锦江花园幼儿园屋顶小灵通基站,浙江,舟山市,普陀县,普陀分公司,122.31649,29.96313,工程局,183.152.192.2-183.152.207.254,光纤,C,工程局SY,乐谋勋,15305808705,0,否,,,727,1022,3035,ZS-DH-NZ-1.domain,以太网,周边居民区,1,2010-12-15,,CT_zj_5809920011,网件AC22（虚）,,正常热点,普陀东港锦江花园幼儿园PHS,,,
CT_zj_580b9901692,800299291,普陀东港永兴隧道口P014PHS, 其他,永兴隧道口P014杆式小灵通基站基站,浙江,舟山市,普陀县,普陀分公司,122.31017,29.95265,工程局,183.152.192.2-183.152.207.254,光纤,C,工程局SY,乐谋勋,15305808705,0,否,,,719,1022,3035,ZS-DH-NZ-1.domain,以太网,周边居民区,1,2010-12-15,,CT_zj_5809920071,网件AC22（虚）,,正常热点,普陀东港永兴隧道口P014PHS,,,
CT_zj_580b9901693,800299292,普陀东港中昌路与海华路交叉口PHS, 其他,中昌路与海华路交叉口小灵通基站基站,浙江,舟山市,普陀县,普陀分公司,122.31107,29.95741,工程局,183.152.192.2-183.152.207.254,光纤,C,工程局SY,乐谋勋,15305808705,0,否,,,720,1022,3035,ZS-DH-NZ-1.domain,以太网,周边居民区,1,2010-12-15,,CT_zj_5809920072,网件AC22（虚）,,正常热点,普陀东港中昌路与海华路交叉口PHS,,,
CT_zj_580b9901694,800299293,普陀东港晨晖路PHS, 其他,东港晨晖路杆式小灵通基站基站,浙江,舟山市,普陀县,普陀分公司,122.31181,29.95294,工程局,183.152.192.2-183.152.207.254,光纤,B,工程局SY,乐谋勋,15305808705,0,否,,,721,1022,3035,ZS-DH-NZ-1.domain,以太网,周边居民区,1,2010-12-15,,CT_zj_5809920073,网件AC22（虚）,,正常热点,普陀东港晨晖路PHS,,,
CT_zj_580a0601124,800106131,定海凤凰岛雷迪森大酒店, 宾馆酒店,定海雷迪森大酒店,浙江,舟山市,定海县,定海分公司,122.13187,29.98062,金州,183.152.192.2-183.152.207.254,光纤,C,国人,业主,15268002789,0,是,,,85,1021,3030,ZS-DH-NZ-1.domain,以太网,全覆盖,11,2010-10-25,,CT_zj_5800610013,网件AC6（虚）,定海雷迪森大酒店,正常热点,定海凤凰岛雷迪森大酒店,,,
CT_zj_580b9901201,800299199,普陀蚂蚁岛东海岸船厂涂装楼, 其他,蚂蚁东海岸船厂涂装楼,浙江,舟山市,普陀县,普陀分公司,122.25899,29.86567,工程局,183.152.192.2-183.152.207.254,光纤,C,工程局SY,乐谋勋,15305808705,0,否,,,581,1022,3026,ZS-DH-NZ-1.domain,以太网,涂装厂3楼办公室和车间,2,2010-11-09,,CT_zj_5809920039,网件AC22（虚）,普陀蚂蚁岛东海岸船厂,正常热点,普陀蚂蚁岛东海岸船厂涂装楼,,,
CT_zj_580b0501203,800205200,普陀朱家尖科技学院图书办公楼, 学校,普陀朱家尖科技学院图书办公楼,浙江,舟山市,普陀县,普陀分公司,122.392121,29.916244,工程局,183.152.192.2-183.152.207.254,光纤,B,京信,乐谋勋,15305808705,0,是,,,439,1002,3028,ZS-DH-NZ-1.domain,以太网,全覆盖,4,2010-11-09,,CT_zj_5800520005,贝尔AC41（虚）,普陀朱家尖科技学院,正常热点,普陀朱家尖科技学院图书办公楼,,,
CT_zj_580b0501204,800205201,普陀朱家尖科技学院动漫楼, 学校,普陀朱家尖科技学院动漫楼北侧,浙江,舟山市,普陀县,普陀分公司,122.391438,29.915136,工程局,183.152.192.2-183.152.207.254,光纤,B,京信,乐谋勋,15305808705,0,是,,,435,1002,3028,ZS-DH-NZ-1.domain,以太网,全覆盖,4,2010-11-09,,CT_zj_5800520006,贝尔AC41（虚）,普陀朱家尖科技学院,正常热点,普陀朱家尖科技学院动漫楼,,,
CT_zj_580b0501206,800205203,普陀朱家尖科技学院教学楼, 学校,普陀朱家尖科技学院教学楼北侧,浙江,舟山市,普陀县,普陀分公司,122.391305,29.915947,工程局,183.152.192.2-183.152.207.254,光纤,B,京信,乐谋勋,15305808705,0,是,,,437,1002,3028,ZS-DH-NZ-1.domain,以太网,全覆盖,4,2010-11-09,,CT_zj_5800520008,贝尔AC41（虚）,普陀朱家尖科技学院,正常热点,普陀朱家尖科技学院教学楼,,,
CT_zj_580b0501207,800205204,普陀朱家尖科技学院实验楼, 学校,普陀朱家尖科技学院实验楼,浙江,舟山市,普陀县,普陀分公司,122.390789,29.916563,工程局,183.152.192.2-183.152.207.254,光纤,B,京信,乐谋勋,15305808705,0,是,,,440,1002,3028,ZS-DH-NZ-1.domain,以太网,全覆盖,2,2010-11-09,,CT_zj_5800520009,贝尔AC41（虚）,普陀朱家尖科技学院,正常热点,普陀朱家尖科技学院实验楼,,,
CT_zj_580b0501210,800205205,普陀朱家尖科技学院宿舍楼3号楼, 学校,普陀朱家尖科技学院宿舍楼3号楼,浙江,舟山市,普陀县,普陀分公司,122.391267,29.918526,工程局,183.152.192.2-183.152.207.254,光纤,B,京信,乐谋勋,15305808705,0,是,,,260,1002,3028,ZS-DH-NZ-1.domain,以太网,全覆盖,5,2010-11-09,,CT_zj_5800520012,贝尔AC41（虚）,普陀朱家尖科技学院,正常热点,普陀朱家尖科技学院宿舍楼3号楼,,,
CT_zj_580b0501211,800205206,普陀朱家尖科技学院宿舍楼4号楼, 学校,普陀朱家尖科技学院宿舍楼4号楼,浙江,舟山市,普陀县,普陀分公司,122.391267,29.918831,工程局,183.152.192.2-183.152.207.254,光纤,B,京信,乐谋勋,15305808705,0,是,,,261,1002,3028,ZS-DH-NZ-1.domain,以太网,全覆盖,5,2010-11-09,,CT_zj_5800520013,贝尔AC41（虚）,普陀朱家尖科技学院,正常热点,普陀朱家尖科技学院宿舍楼4号楼,,,
CT_zj_580b0501215,800205208,普陀东港普陀中学6号楼教师宿舍室外, 学校,普陀东港普陀中学教5号楼教师宿舍,浙江,舟山市,普陀县,普陀分公司,122.317808,29.987974,工程局,183.152.192.2-183.152.207.254,光纤,C,京信,乐谋勋,15305808705,0,是,,,441,1002,3037,ZS-DH-NZ-1.domain,以太网,全覆盖,2,2010-11-09,,CT_zj_5800520014,贝尔ac47（虚）,普陀东港普陀中学,正常热点,普陀东港普陀中学6号楼教师宿舍室外,,,
CT_zj_580b0501217,800205209,普陀东港普陀中学体艺楼, 学校,普陀东港普陀中学体艺楼,浙江,舟山市,普陀县,普陀分公司,122.31885,29.98555,工程局,183.152.192.2-183.152.207.254,光纤,C,京信,乐谋勋,15305808705,0,是,,,443,1002,3037,ZS-DH-NZ-1.domain,以太网,全覆盖,3,2010-11-09,,CT_zj_5800520016,贝尔AC41（虚）,普陀东港普陀中学,正常热点,普陀东港普陀中学体艺楼,,,
CT_zj_580b0501218,800205210,普陀东港普陀中学图书办公楼, 学校,普陀东港普陀中学图书办公楼,浙江,舟山市,普陀县,普陀分公司,122.318516,29.984435,工程局,183.152.192.2-183.152.207.254,光纤,C,京信,乐谋勋,15305808705,0,是,,,444,1002,3037,ZS-DH-NZ-1.domain,以太网,全覆盖,4,2010-11-09,,CT_zj_5800520017,贝尔AC41（虚）,普陀东港普陀中学,正常热点,普陀东港普陀中学图书办公楼,,,
CT_zj_580b1601219,800216211,普陀展茅螺门中国移动合作营业厅, 电信自有,普陀螺门中国移动合作营业厅,浙江,舟山市,普陀县,普陀分公司,122.27766,30.05897,工程局,183.152.192.2-183.152.207.254,光纤,C,工程局FZ,乐谋勋,15305808705,0,否,,,815,1022,3034,ZS-DH-NZ-1.domain,以太网,营业厅,1,2010-11-09,,CT_zj_5801620035,网件AC22（虚）,,正常热点,普陀展茅螺门中国移动合作营业厅,,,
CT_zj_580c9901221,800416057,嵊泗菜园电信新办公大楼油机房室外, 其他,嵊泗菜园电信综合大楼油机房顶,浙江,舟山市,嵊泗县,嵊泗分公司,122.45253,30.72762,金州,183.152.192.2-183.152.207.254,光纤,C,工程局FZ,阮卫其,13395801152,0,否,,,1561,1024,3025,ZS-DH-NZ-1.domain,以太网,云龙路街道,1,2010-11-09,,CT_zj_5809940005,网件AC22（虚）,,正常热点,嵊泗菜园电信新办公大楼油机房室外,,,
CT_zj_580c9901222,800411058,嵊泗菜园开心花园2号楼PHS, 其他,嵊泗菜园开心花园2号楼,浙江,舟山市,嵊泗县,嵊泗分公司,122.45463,30.72754,金州,183.152.192.2-183.152.207.254,光纤,C,工程局FZ,阮卫其,13395801152,0,否,,,1574,1024,3027,ZS-DH-NZ-1.domain,以太网,兴海路街道,1,2010-11-09,,CT_zj_5809940027,网件AC22（虚）,,正常热点,嵊泗菜园开心花园2号楼PHS,,,
CT_zj_580c9901223,800406059,嵊泗菜园绿岛宾馆室外, 其他,嵊泗菜园绿岛宾馆屋顶,浙江,舟山市,嵊泗县,嵊泗分公司,122.45638,30.72955,金州,183.152.192.2-183.152.207.254,光纤,C,工程局FZ,阮卫其,13395801152,0,否,,,1556,1024,3026,ZS-DH-NZ-1.domain,以太网,兴海路街道,1,2010-11-09,,CT_zj_5809940003,网件AC22（虚）,,正常热点,嵊泗菜园绿岛宾馆室外,,,
CT_zj_580b9901698,800299297,普陀沈家门蒲湾一区东海中路交叉口P035PHS, 其他,普陀沈家门蒲湾一区.东海中路交叉口P035杆,浙江,舟山市,普陀县,普陀分公司,122.28633,29.94718,工程局,183.152.192.2-183.152.207.254,光纤,C,工程局FZ,乐谋勋,15305808705,0,否,,,665,1002,3032,ZS-DH-NZ-1.domain,以太网,蒲湾一区.东海中路交叉口附近店面街道,1,2010-12-15,,CT_zj_5809920066,贝尔ac47（虚）,,正常热点,普陀沈家门蒲湾一区东海中路交叉口P035PHS,,,
CT_zj_580b9901699,800299298,普陀东港海燕房产新立特5号楼PHS, 其他,东港海燕房产新立特5号楼601室顶小灵通基站,浙江,舟山市,普陀县,普陀分公司,122.30893,29.95571,工程局,183.152.192.2-183.152.207.254,光纤,C,工程局SY,乐谋勋,15305808705,0,否,,,501,1002,3035,ZS-DH-NZ-1.domain,以太网,周边居民区,2,2010-12-15,,CT_zj_5809920068,贝尔AC41（虚）,,正常热点,普陀东港海燕房产新立特5号楼PHS,,,
CT_zj_580b0501807,800205342,普陀朱家尖佛学院宿舍34b, 学校,普陀朱家尖乌石塘路,浙江,舟山市,普陀县,普陀分公司,122.388664,29.92986,工程局,183.152.192.2-183.152.207.254,光纤,C,浙贝,乐谋勋,15305808705,0,否,,,789,1022,3027,ZS-DH-NZ-1.domain,以太网,佛学院-宿舍34b,1,2011-01-07,,CT_zj_5800520044,网件AC22（虚）,普陀朱家尖佛学院,正常热点,普陀朱家尖佛学院宿舍34b,,,
CT_zj_580a1401821,800114264,定海临城红星美凯龙, 聚类市场,定海临城红星美凯龙,浙江,舟山市,定海县,定海分公司,122.22358,29.97761,金州,183.152.192.2-183.152.207.254,光纤,C,国人,吴师傅,13957226206,0,是,,,283,1021,3024,ZS-DH-NZ-1.domain,以太网,全覆盖,17,2011-01-13,,CT_zj_5801400004,网件AC6（虚）,,正常热点,定海临城红星美凯龙,,,
CT_zj_580d0601841,800306076,岱山高亭华侨饭店室分, 宾馆酒店,岱山华侨饭店,浙江,舟山市,岱山县,岱山分公司,122.202065,30.248765,金州,183.152.192.2-183.152.207.254,光纤,B,京信,魏幸淑,15305807947,0,是,,,2181,1001,3024,ZS-DH-NZ-1.domain,以太网,3-6F,2,2011-02-25,,CT_zj_5800630006,贝尔ac44（虚）,,正常热点,岱山高亭华侨饭店室分,,,
CT_zj_580a9901947,800199300,定海西大街银监局顶PHS, 其他,定海西大街银监局顶小灵通基站,浙江,舟山市,定海县,定海分公司,122.101781,30.019874,金州,183.152.192.2-183.152.207.254,光纤,C,工程局SY,顾磊,15305809609,0,否,,,201,1001,3024,ZS-DH-NZ-1.domain,以太网,总府路靠近银监局部分街铺,2,2011-03-19,,CT_zj_5809910044,贝尔ac44（虚）,,正常热点,定海西大街银监局顶PHS,,,
CT_zj_580d0601961,800306078,岱山衢山豪士登大酒店, 宾馆酒店,岱山大衢豪士登大酒店室分,浙江,舟山市,岱山县,岱山分公司,122.28917,30.45222,金州,183.152.192.2-183.152.207.254,光纤,C,京信,魏幸淑,15305807947,0,是,,,2074,1003,3024,ZS-DH-NZ-1.domain,以太网,全覆盖,1,2011-03-28,,CT_zj_5800630016,贝尔AC38（虚）,,正常热点,岱山衢山豪士登大酒店,,,
CT_zj_580c0400090,80042002,嵊泗菜园李柱山码头, 码头,嵊泗县菜园镇李柱山,浙江,舟山市,嵊泗县,嵊泗分公司,122.42053,30.74098,金州,183.152.192.2-183.152.207.254,光纤,A,工程局FZ,阮卫其,13395801152,0,否,,,2001,1004,3024,ZS-DH-NZ-1.domain,以太网,1F-2F候船厅,2,2008-04-17,,CT_zj_5800440001,贝尔AC41（虚）,,正常热点,嵊泗菜园李柱山码头,,,
CT_zj_580c9900148,800499028,嵊泗菜园交警大队大楼PHS, 其他,嵊泗交警队大楼,浙江,舟山市,嵊泗县,嵊泗分公司,122.45158,30.72105,金州,183.152.192.2-183.152.207.254,光纤,C,工程局FZ,阮卫其,13395801152,0,否,,,1514,1024,3024,ZS-DH-NZ-1.domain,以太网,嵊泗中学老师办公室,1,2009-11-12,,CT_zj_5801240011,网件AC22（虚）,,正常热点,嵊泗菜园交警大队大楼PHS,,,
CT_zj_580b0501804,800205339,普陀朱家尖佛学院参学会馆客房E, 学校,普陀朱家尖乌石塘路,浙江,舟山市,普陀县,普陀分公司,122.389798,29.92809,工程局,183.152.192.2-183.152.207.254,光纤,C,浙贝,乐谋勋,15305808705,0,否,,,781,1022,3027,ZS-DH-NZ-1.domain,以太网,参学会馆（客房E）,1,2011-01-07,,CT_zj_5800520041,网件AC22（虚）,普陀朱家尖佛学院,正常热点,普陀朱家尖佛学院参学会馆客房E,,,
CT_zj_580a0502022,800105307,定海浙江海洋学院西教学楼PHS, 学校,定海浙江海洋学院西教学楼顶小灵通基站,浙江,舟山市,定海县,定海分公司,122.10882,30.03687,金州,183.152.192.2-183.152.207.254,光纤,C,工程局SY,顾磊,15305809609,0,是,,,131,1021,2903,ZS-DH-NZ-1.domain,以太网,西教学楼附近,1,2011-04-15,,CT_zj_5800501001,网件AC6（虚）,定海浙江海洋学院,正常热点,定海浙江海洋学院西教学楼PHS,,,
CT_zj_580a0502023,800105308,定海浙江海洋学院1号宿舍楼PHS, 学校,定海浙江海洋学院1号宿舍楼顶小灵通基站,浙江,舟山市,定海县,定海分公司,122.10924,30.03865,金州,183.152.192.2-183.152.207.254,光纤,C,工程局SY,顾磊,15305809609,0,是,,,132,1021,2903,ZS-DH-NZ-1.domain,以太网,1号宿舍楼附近,1,2011-04-15,,CT_zj_5800501002,网件AC6（虚）,定海浙江海洋学院,正常热点,定海浙江海洋学院1号宿舍楼PHS,,,
CT_zj_580a0502024,800105309,定海浙江海洋学院4号宿舍楼PHS, 学校,定海浙江海洋学院4号宿舍楼顶小灵通基站,浙江,舟山市,定海县,定海分公司,122.10891,30.03967,金州,183.152.192.2-183.152.207.254,光纤,C,工程局SY,顾磊,15305809609,0,是,,,133,1021,2903,ZS-DH-NZ-1.domain,以太网,4号宿舍楼附近,1,2011-04-15,,CT_zj_5800501003,网件AC6（虚）,定海浙江海洋学院,正常热点,定海浙江海洋学院4号宿舍楼PHS,,,
CT_zj_580d0601702,800306058,岱山长涂红老大宾馆, 宾馆酒店,岱山长涂红老大宾馆,浙江,舟山市,岱山县,岱山分公司,122.29339,30.25476,金州,183.152.192.2-183.152.207.254,光纤,C,工程局FZ,魏幸淑,15305807947,0,否,,,1054,1023,3024,ZS-DH-NZ-1.domain,以太网,宾馆客房,1,2010-12-20,,CT_zj_5800630005,网件AC6（虚）,,正常热点,岱山长涂红老大宾馆,,,
CT_zj_580d9901703,800399059,岱山长涂海军司令部, 其他,岱山长涂海军司令部,浙江,舟山市,岱山县,岱山分公司,122.30539,30.25314,金州,183.152.192.2-183.152.207.254,光纤,C,工程局FZ,魏幸淑,15305807947,0,否,,,1055,1023,3024,ZS-DH-NZ-1.domain,以太网,司令部办公楼,1,2010-12-20,,CT_zj_5809930002,网件AC6（虚）,,正常热点,岱山长涂海军司令部,,,
CT_zj_580d9901704,800313060,岱山衢山人民医院职工宿舍, 其他,岱山大巨人民医院职工宿舍,浙江,舟山市,岱山县,岱山分公司,122.29268,30.4541,金州,183.152.192.2-183.152.207.254,光纤,C,工程局FZ,魏幸淑,15305807947,0,否,,,1059,1023,3024,ZS-DH-NZ-1.domain,以太网,宿舍,1,2010-12-20,,CT_zj_5801330003,网件AC6（虚）,,正常热点,岱山衢山人民医院职工宿舍,,,
CT_zj_580d9901706,800316062,岱山衢山镇横街室外, 其他,岱山衢山镇横街电信交接箱,浙江,舟山市,岱山县,岱山分公司,122.28815,30.45208,金州,183.152.192.2-183.152.207.254,光纤,B,工程局FZ,魏幸淑,15305807947,0,否,,,1064,1023,3024,ZS-DH-NZ-1.domain,以太网,横街附近街道、店面,1,2010-12-20,,CT_zj_5809930010,网件AC6（虚）,,正常热点,岱山衢山镇横街室外,,,
CT_zj_580d9901707,800312063,岱山衢山镇政府室外, 其他,岱山衢山镇政府门口,浙江,舟山市,岱山县,岱山分公司,122.29187,30.45337,金州,183.152.192.2-183.152.207.254,光纤,C,工程局FZ,魏幸淑,15305807947,0,否,,,1065,1023,3024,ZS-DH-NZ-1.domain,以太网,人民路附近街道、店面,1,2010-12-20,,CT_zj_5809930012,网件AC6（虚）,,正常热点,岱山衢山镇政府室外,,,
CT_zj_580d1301708,800313064,岱山衢山岛斗医院输液室, 医院,岱山衢山镇岛斗医院输液室,浙江,舟山市,岱山县,岱山分公司,122.29211,30.45381,金州,183.152.192.2-183.152.207.254,光纤,C,工程局FZ,魏幸淑,15305807947,0,否,,,1066,1023,3024,ZS-DH-NZ-1.domain,以太网,输液室,1,2010-12-20,,CT_zj_5801330004,网件AC6（虚）,,正常热点,岱山衢山岛斗医院输液室,,,
CT_zj_580d1301709,800316065,岱山衢山桂花电信营业厅室外, 医院,岱山衢山镇电信桂花所前交接箱,浙江,舟山市,岱山县,岱山分公司,122.309406,30.451923,金州,183.152.192.2-183.152.207.254,光纤,B,工程局FZ,营业厅,7898900,0,否,,,1067,1023,3025,ZS-DH-NZ-1.domain,以太网,卫生院大楼,1,2010-12-20,,CT_zj_5801330007,网件AC6（虚）,,正常热点,岱山衢山桂花电信营业厅室外,,,
CT_zj_580b0501714,800205303,普陀朱家尖佛学院行政楼行政, 学校,普陀朱家尖乌石塘路,浙江,舟山市,普陀县,普陀分公司,122.393013,29.929797,工程局,183.152.192.2-183.152.207.254,光纤,C,浙贝,乐谋勋,15305808705,0,否,,,777,1022,3027,ZS-DH-NZ-1.domain,以太网,行政楼（行政）2F,2,2010-12-20,,CT_zj_5800520026,网件AC22（虚）,普陀朱家尖佛学院,正常热点,普陀朱家尖佛学院行政楼行政,,,
CT_zj_580b0501715,800205304,普陀朱家尖佛学院参学会馆客房B, 学校,普陀朱家尖乌石塘路,浙江,舟山市,普陀县,普陀分公司,122.390882,29.928478,工程局,183.152.192.2-183.152.207.254,光纤,C,浙贝,乐谋勋,15305808705,0,否,,,779,1022,3027,ZS-DH-NZ-1.domain,以太网,参学会馆（客房B）2F~3F,2,2010-12-20,,CT_zj_5800520027,网件AC22（虚）,普陀朱家尖佛学院,正常热点,普陀朱家尖佛学院参学会馆客房B,,,
CT_zj_580b0501716,800205305,普陀朱家尖佛学院参学会馆客房F, 学校,普陀朱家尖乌石塘路,浙江,舟山市,普陀县,普陀分公司,122.390259,29.928664,工程局,183.152.192.2-183.152.207.254,光纤,C,浙贝,乐谋勋,15305808705,0,是,,,782,1022,3027,ZS-DH-NZ-1.domain,以太网,参学会馆（客房F）,1,2010-12-20,,CT_zj_5800520028,网件AC22（虚）,普陀朱家尖佛学院,正常热点,普陀朱家尖佛学院参学会馆客房F,,,
CT_zj_580b0501717,800205306,普陀朱家尖佛学院宿舍33a, 学校,普陀朱家尖乌石塘路,浙江,舟山市,普陀县,普陀分公司,122.389347,29.928579,工程局,183.152.192.2-183.152.207.254,光纤,C,浙贝,乐谋勋,15305808705,0,否,,,785,1022,3027,ZS-DH-NZ-1.domain,以太网,佛学院-宿舍33a,1,2010-12-20,,CT_zj_5800520029,网件AC22（虚）,普陀朱家尖佛学院,正常热点,普陀朱家尖佛学院宿舍33a,,,
CT_zj_580b0501718,800205307,普陀朱家尖佛学院宿舍33b, 学校,普陀朱家尖乌石塘路,浙江,舟山市,普陀县,普陀分公司,122.389302,29.928819,工程局,183.152.192.2-183.152.207.254,光纤,C,浙贝,乐谋勋,15305808705,0,否,,,786,1022,3027,ZS-DH-NZ-1.domain,以太网,佛学院-宿舍33b、32a,1,2010-12-20,,CT_zj_5800520030,网件AC22（虚）,普陀朱家尖佛学院,正常热点,普陀朱家尖佛学院宿舍33b,,,
CT_zj_580b0501719,800205308,普陀朱家尖佛学院宿舍32b, 学校,普陀朱家尖乌石塘路,浙江,舟山市,普陀县,普陀分公司,122.388927,29.929221,工程局,183.152.192.2-183.152.207.254,光纤,C,浙贝,乐谋勋,15305808705,0,否,,,787,1022,3027,ZS-DH-NZ-1.domain,以太网,佛学院-宿舍32b、30,1,2010-12-20,,CT_zj_5800520031,网件AC22（虚）,普陀朱家尖佛学院,正常热点,普陀朱家尖佛学院宿舍32b,,,
CT_zj_580b0501720,800205309,普陀朱家尖佛学院宿舍31, 学校,普陀朱家尖乌石塘路,浙江,舟山市,普陀县,普陀分公司,122.388676,29.92963,工程局,183.152.192.2-183.152.207.254,光纤,C,浙贝,乐谋勋,15305808705,0,否,,,788,1022,3027,ZS-DH-NZ-1.domain,以太网,佛学院-宿舍31、34a,1,2010-12-20,,CT_zj_5800520032,网件AC22（虚）,普陀朱家尖佛学院,正常热点,普陀朱家尖佛学院宿舍31,,,
CT_zj_580b0501721,800205310,普陀朱家尖佛学院戒幢院, 学校,普陀朱家尖乌石塘路,浙江,舟山市,普陀县,普陀分公司,122.389983,29.931188,工程局,183.152.192.2-183.152.207.254,光纤,C,浙贝,乐谋勋,15305808705,0,否,,,791,1022,3027,ZS-DH-NZ-1.domain,以太网,佛学院-戒幢院、宿舍35,1,2010-12-20,,CT_zj_5800520033,网件AC22（虚）,普陀朱家尖佛学院,正常热点,普陀朱家尖佛学院戒幢院,,,
CT_zj_580b0501722,800205311,普陀朱家尖佛学院曹溪院, 学校,普陀朱家尖乌石塘路,浙江,舟山市,普陀县,普陀分公司,122.390495,29.931217,工程局,183.152.192.2-183.152.207.254,光纤,C,浙贝,乐谋勋,15305808705,0,否,,,792,1022,3027,ZS-DH-NZ-1.domain,以太网,佛学院-曹溪院,1,2010-12-20,,CT_zj_5800520034,网件AC22（虚）,普陀朱家尖佛学院,正常热点,普陀朱家尖佛学院曹溪院,,,
CT_zj_580b0501723,800205312,普陀朱家尖佛学院嘉祥院, 学校,普陀朱家尖乌石塘路,浙江,舟山市,普陀县,普陀分公司,122.391605,29.931512,工程局,183.152.192.2-183.152.207.254,光纤,C,浙贝,乐谋勋,15305808705,0,否,,,793,1022,3027,ZS-DH-NZ-1.domain,以太网,佛学院-嘉祥院,1,2010-12-20,,CT_zj_5800520035,网件AC22（虚）,普陀朱家尖佛学院,正常热点,普陀朱家尖佛学院嘉祥院,,,
CT_zj_580a0501751,800105247,定海临城海运学院学生公寓1号楼, 学校,定海临城新区海天大道268号,浙江,舟山市,定海县,定海分公司,122.1802,29.99158,金州,183.152.192.2-183.152.207.254,光纤,A,国人,王国兵老师,18957226282,0,是,,,58,1001,1002,ZS-DH-NZ-1.domain,以太网,全覆盖,24,2010-12-23,,CT_zj_5800510008,贝尔AC38（虚）,定海临城海运学院,正常热点,定海临城海运学院学生公寓1号楼,,,
CT_zj_580d0800004,800308018,岱山高亭兰山咖啡茶座, 休闲娱乐吧,兰山咖啡,浙江,舟山市,岱山县,岱山分公司,122.19938,30.2443,金州,183.152.192.2-183.152.207.254,光纤,C,工程局FZ,魏幸淑,15305807947,0,是,,,1037,1023,3024,ZS-DH-NZ-1.domain,以太网,咖啡厅,2,2009-02-09,,CT_zj_5800830004,网件AC6（虚）,,正常热点,岱山高亭兰山咖啡茶座,,,
CT_zj_580d0401725,800304066,岱山衢山客运站, 码头,舟山市衢山衢山新客运码头,浙江,舟山市,岱山县,岱山分公司,122.280696,30.436021,金州,183.152.192.2-183.152.207.254,光纤,B,京信,魏幸淑,15305807947,0,否,,,1068,1023,3024,ZS-DH-NZ-1.domain,以太网,候船大厅1F-2F,1,2010-12-20,,CT_zj_5800430001,网件AC6（虚）,,正常热点,岱山衢山客运站,,,
CT_zj_580d9901727,800305068,岱山高亭技校PHS, 其他,岱山技校小灵通基站,浙江,舟山市,岱山县,岱山分公司,122.205852,30.254078,金州,183.152.192.2-183.152.207.254,光纤,B,工程局FZ,魏幸淑,15305807947,0,否,,,1046,1023,3026,ZS-DH-NZ-1.domain,以太网,技校办公楼、教室,1,2010-12-20,,CT_zj_5800530001,网件AC6（虚）,,正常热点,岱山高亭技校PHS,,,
CT_zj_580b0501761,800205317,普陀朱家尖佛学院弥陀院, 学校,普陀朱家尖乌石塘路,浙江,舟山市,普陀县,普陀分公司,122.390399,29.930686,工程局,183.152.192.2-183.152.207.254,光纤,C,浙贝,乐谋勋,15305808705,0,否,,,790,1022,3027,ZS-DH-NZ-1.domain,以太网,佛学院-弥陀院,3,2010-12-23,,CT_zj_5800520037,网件AC22（虚）,普陀朱家尖佛学院,正常热点,普陀朱家尖佛学院弥陀院,,,
CT_zj_580b0501762,800205318,普陀朱家尖佛学院法界院, 学校,普陀朱家尖乌石塘路,浙江,舟山市,普陀县,普陀分公司,122.391995,29.930991,工程局,183.152.192.2-183.152.207.254,光纤,C,浙贝,乐谋勋,15305808705,0,否,,,795,1022,3027,ZS-DH-NZ-1.domain,以太网,佛学院-法界院,2,2010-12-23,,CT_zj_5800520038,网件AC22（虚）,普陀朱家尖佛学院,正常热点,普陀朱家尖佛学院法界院,,,
CT_zj_580b0801842,800208343,普陀沈家门沁和茶馆, 休闲娱乐吧,普陀沈家门沁和茶馆,浙江,舟山市,普陀县,普陀分公司,122.29792,29.9497,工程局,183.152.192.2-183.152.207.254,光纤,D,工程局,乐谋勋,15305808705,0,否,,,796,1022,3024,ZS-DH-NZ-1.domain,以太网,1F和2F,1,2011-02-25,,CT_zj_5800820012,网件AC22（虚）,,正常热点,普陀沈家门沁和茶馆,,,
CT_zj_580b0501843,800205344,普陀沈家门城北初级中学行政楼, 学校,北临G329国道，东靠教北路,浙江,舟山市,普陀县,普陀分公司,122.27694,29.96703,工程局,183.152.192.2-183.152.207.254,光纤,D,工程局,乐谋勋,15305808705,0,否,,,692,1022,3028,ZS-DH-NZ-1.domain,以太网,全覆盖,1,2011-02-25,,CT_zj_5800520045,网件AC22（虚）,普陀沈家门城北初级中学,正常热点,普陀沈家门城北初级中学行政楼,,,
CT_zj_580b0501844,800205345,普陀沈家门城北初级中学图书馆, 学校,北临G329国道，东靠教北路,浙江,舟山市,普陀县,普陀分公司,122.27697,29.96745,工程局,183.152.192.2-183.152.207.254,光纤,D,工程局,乐谋勋,15305808705,0,否,,,693,1022,3028,ZS-DH-NZ-1.domain,以太网,全覆盖,1,2011-02-25,,CT_zj_5800520046,网件AC22（虚）,普陀沈家门城北初级中学,正常热点,普陀沈家门城北初级中学图书馆,,,
